{
"type": "FeatureCollection",
"name": "bicis",
"crs": { "type": "name", "properties": { "name": "urn:ogc:def:crs:OGC:1.3:CRS84" } },
"features": [
{ "type": "Feature", "properties": { "ID": 202, "NUMERO": 1, "NOMBRE": "FACULTAD DE DERECHO", "DIRECCION": "2120 Figueroa Alcorta, Pres. Av.", "BARRIO": "RECOLETA", "COMUNA": "COMUNA 2", "EMPLAZAMIE": "VEREDA", "ANCLAJES": 30, "QUEDA_ABIE": 1, "Lat": -34.5842, "Lon": -58.3905 }, "geometry": { "type": "Point", "coordinates": [ -58.3905, -34.5842 ] } },
{ "type": "Feature", "properties": { "ID": 2, "NUMERO": 2, "NOMBRE": "RETIRO I", "DIRECCION": "Ramos Mejia, Jose Maria, Dr. Av. & Del Libertador Av.", "BARRIO": "RETIRO", "COMUNA": "COMUNA 1", "EMPLAZAMIE": "PLAZA ABIERTA", "ANCLAJES": 36, "QUEDA_ABIE": 1, "Lat": -34.5927, "Lon": -58.3751 }, "geometry": { "type": "Point", "coordinates": [ -58.3751, -34.5927 ] } },
{ "type": "Feature", "properties": { "ID": 3, "NUMERO": 3, "NOMBRE": "ADUANA", "DIRECCION": "Moreno & Azopardo", "BARRIO": "MONSERRAT", "COMUNA": "COMUNA 1", "EMPLAZAMIE": "VEREDA", "ANCLAJES": 20, "QUEDA_ABIE": 1, "Lat": -34.6112, "Lon": -58.3696 }, "geometry": { "type": "Point", "coordinates": [ -58.3696, -34.6112 ] } },
{ "type": "Feature", "properties": { "ID": 4, "NUMERO": 4, "NOMBRE": "PLAZA ROMA", "DIRECCION": "Lavalle & Bouchard", "BARRIO": "SAN NICOLAS", "COMUNA": "COMUNA 1", "EMPLAZAMIE": "CALZADA", "ANCLAJES": 20, "QUEDA_ABIE": 1, "Lat": -34.6018, "Lon": -58.3691 }, "geometry": { "type": "Point", "coordinates": [ -58.3691, -34.6018 ] } },
{ "type": "Feature", "properties": { "ID": 5, "NUMERO": 5, "NOMBRE": "PLAZA ITALIA", "DIRECCION": "2601 Sarmiento Av.", "BARRIO": "PALERMO", "COMUNA": "COMUNA 14", "EMPLAZAMIE": "VEREDA", "ANCLAJES": 42, "QUEDA_ABIE": 1, "Lat": -34.5808, "Lon": -58.4204 }, "geometry": { "type": "Point", "coordinates": [ -58.4204, -34.5808 ] } },
{ "type": "Feature", "properties": { "ID": 6, "NUMERO": 6, "NOMBRE": "PARQUE LEZAMA", "DIRECCION": "295 Garcia, Martin Av.", "BARRIO": "SAN TELMO", "COMUNA": "COMUNA 1", "EMPLAZAMIE": "PLAZA ABIERTA", "ANCLAJES": 20, "QUEDA_ABIE": 1, "Lat": -34.6282, "Lon": -58.3694 }, "geometry": { "type": "Point", "coordinates": [ -58.3694, -34.6282 ] } },
{ "type": "Feature", "properties": { "ID": 7, "NUMERO": 7, "NOMBRE": "OBELISCO", "DIRECCION": "215 Pellegrini, Carlos", "BARRIO": "SAN NICOLAS", "COMUNA": "COMUNA 1", "EMPLAZAMIE": "PLAZOLETA", "ANCLAJES": 16, "QUEDA_ABIE": 1, "Lat": -34.6058, "Lon": -58.3807 }, "geometry": { "type": "Point", "coordinates": [ -58.3807, -34.6058 ] } },
{ "type": "Feature", "properties": { "ID": 8, "NUMERO": 8, "NOMBRE": "CONGRESO", "DIRECCION": "Cevallos, Virrey & Yrigoyen, Hipolito Av.", "BARRIO": "SAN NICOLAS", "COMUNA": "COMUNA 1", "EMPLAZAMIE": "PLAZA ABIERTA", "ANCLAJES": 24, "QUEDA_ABIE": 1, "Lat": -34.6101, "Lon": -58.3891 }, "geometry": { "type": "Point", "coordinates": [ -58.3891, -34.6101 ] } },
{ "type": "Feature", "properties": { "ID": 9, "NUMERO": 9, "NOMBRE": "PARQUE LAS HERAS", "DIRECCION": "2300 Diaz, Cnel. Av. & French", "BARRIO": "PALERMO", "COMUNA": "COMUNA 14", "EMPLAZAMIE": "PLAZA ABIERTA", "ANCLAJES": 24, "QUEDA_ABIE": 1, "Lat": -34.5855, "Lon": -58.4077 }, "geometry": { "type": "Point", "coordinates": [ -58.4077, -34.5855 ] } },
{ "type": "Feature", "properties": { "ID": 228, "NUMERO": 10, "NOMBRE": "MADERO UCA", "DIRECCION": "1600 Moreau De Justo, Alicia Av.", "BARRIO": "PUERTO MADERO", "COMUNA": "COMUNA 1", "EMPLAZAMIE": "VEREDA", "ANCLAJES": 20, "QUEDA_ABIE": 1, "Lat": -34.617, "Lon": -58.3658 }, "geometry": { "type": "Point", "coordinates": [ -58.3658, -34.617 ] } },
{ "type": "Feature", "properties": { "ID": 11, "NUMERO": 11, "NOMBRE": "TRIBUNALES", "DIRECCION": "600 Talcahuano & Tucuman", "BARRIO": "SAN NICOLAS", "COMUNA": "COMUNA 1", "EMPLAZAMIE": "PLAZA ABIERTA", "ANCLAJES": 20, "QUEDA_ABIE": 0, "Lat": -34.6017, "Lon": -58.3854 }, "geometry": { "type": "Point", "coordinates": [ -58.3854, -34.6017 ] } },
{ "type": "Feature", "properties": { "ID": 12, "NUMERO": 12, "NOMBRE": "PLAZA VICENTE LOPEZ", "DIRECCION": "Parana & Juncal", "BARRIO": "RECOLETA", "COMUNA": "COMUNA 2", "EMPLAZAMIE": "PLAZA ABIERTA", "ANCLAJES": 16, "QUEDA_ABIE": 1, "Lat": -34.5928, "Lon": -58.3888 }, "geometry": { "type": "Point", "coordinates": [ -58.3888, -34.5928 ] } },
{ "type": "Feature", "properties": { "ID": 13, "NUMERO": 13, "NOMBRE": "ONCE", "DIRECCION": "Pueyrredon Av. & Rivadavia Av.", "BARRIO": "BALVANERA", "COMUNA": "COMUNA 3", "EMPLAZAMIE": "PLAZA ABIERTA", "ANCLAJES": 30, "QUEDA_ABIE": 1, "Lat": -34.6101, "Lon": -58.4066 }, "geometry": { "type": "Point", "coordinates": [ -58.4066, -34.6101 ] } },
{ "type": "Feature", "properties": { "ID": 14, "NUMERO": 14, "NOMBRE": "PACIFICO", "DIRECCION": "550 Bullrich, Int. Av. & Santa Fe Av.", "BARRIO": "PALERMO", "COMUNA": "COMUNA 14", "EMPLAZAMIE": "VEREDA", "ANCLAJES": 30, "QUEDA_ABIE": 1, "Lat": -34.5782, "Lon": -58.4266 }, "geometry": { "type": "Point", "coordinates": [ -58.4266, -34.5782 ] } },
{ "type": "Feature", "properties": { "ID": 15, "NUMERO": 15, "NOMBRE": "JUANA MANSO II", "DIRECCION": "Manso Juana & De La Barra, Emma", "BARRIO": "PUERTO MADERO", "COMUNA": "COMUNA 1", "EMPLAZAMIE": "VEREDA", "ANCLAJES": 15, "QUEDA_ABIE": 0, "Lat": -34.6004, "Lon": -58.3639 }, "geometry": { "type": "Point", "coordinates": [ -58.3639, -34.6004 ] } },
{ "type": "Feature", "properties": { "ID": 441, "NUMERO": 16, "NOMBRE": "LEGISLATURA", "DIRECCION": "169 Peru & Roca, Julio A., Presidente Diagonal Sur Av.", "BARRIO": "MONSERRAT", "COMUNA": "COMUNA 1", "EMPLAZAMIE": "VEREDA", "ANCLAJES": 20, "QUEDA_ABIE": 1, "Lat": -34.6099, "Lon": -58.375 }, "geometry": { "type": "Point", "coordinates": [ -58.375, -34.6099 ] } },
{ "type": "Feature", "properties": { "ID": 17, "NUMERO": 17, "NOMBRE": "PLAZA ALMAGRO", "DIRECCION": "441 Bulnes & Peron, Juan Domingo, Tte. General", "BARRIO": "ALMAGRO", "COMUNA": "COMUNA 5", "EMPLAZAMIE": "CALZADA", "ANCLAJES": 20, "QUEDA_ABIE": 1, "Lat": -34.6064, "Lon": -58.4185 }, "geometry": { "type": "Point", "coordinates": [ -58.4185, -34.6064 ] } },
{ "type": "Feature", "properties": { "ID": 59, "NUMERO": 18, "NOMBRE": "INDEPENDENCIA", "DIRECCION": "Independencia Av. & Irigoyen, Bernardo De", "BARRIO": "MONSERRAT", "COMUNA": "COMUNA 1", "EMPLAZAMIE": "PLAZOLETA", "ANCLAJES": 20, "QUEDA_ABIE": 1, "Lat": -34.6176, "Lon": -58.3803 }, "geometry": { "type": "Point", "coordinates": [ -58.3803, -34.6176 ] } },
{ "type": "Feature", "properties": { "ID": 19, "NUMERO": 19, "NOMBRE": "PLAZA SAN MARTIN", "DIRECCION": "750 Santa Fe Av. & Maipu", "BARRIO": "RETIRO", "COMUNA": "COMUNA 1", "EMPLAZAMIE": "PLAZOLETA", "ANCLAJES": 21, "QUEDA_ABIE": 0, "Lat": -34.5956, "Lon": -58.3773 }, "geometry": { "type": "Point", "coordinates": [ -58.3773, -34.5956 ] } },
{ "type": "Feature", "properties": { "ID": 20, "NUMERO": 20, "NOMBRE": "DISTRITO AUDIOVISUAL", "DIRECCION": "Zapiola & Dorrego", "BARRIO": "COLEGIALES", "COMUNA": "COMUNA 13", "EMPLAZAMIE": "CALZADA", "ANCLAJES": 20, "QUEDA_ABIE": 0, "Lat": -34.5801, "Lon": -58.4416 }, "geometry": { "type": "Point", "coordinates": [ -58.4416, -34.5801 ] } },
{ "type": "Feature", "properties": { "ID": 21, "NUMERO": 21, "NOMBRE": "PARQUE PATRICIOS", "DIRECCION": "Iguazu & Uspallata", "BARRIO": "PARQUE PATRICIOS", "COMUNA": "COMUNA 4", "EMPLAZAMIE": "PLAZOLETA", "ANCLAJES": 24, "QUEDA_ABIE": 1, "Lat": -34.6403, "Lon": -58.4065 }, "geometry": { "type": "Point", "coordinates": [ -58.4065, -34.6403 ] } },
{ "type": "Feature", "properties": { "ID": 22, "NUMERO": 22, "NOMBRE": "ARENALES", "DIRECCION": "Cerrito & Arenales", "BARRIO": "RETIRO", "COMUNA": "COMUNA 1", "EMPLAZAMIE": "PLAZOLETA", "ANCLAJES": 20, "QUEDA_ABIE": 1, "Lat": -34.5943, "Lon": -58.3828 }, "geometry": { "type": "Point", "coordinates": [ -58.3828, -34.5943 ] } },
{ "type": "Feature", "properties": { "ID": 23, "NUMERO": 23, "NOMBRE": "SUIPACHA", "DIRECCION": "691 Suipacha & Viamonte", "BARRIO": "SAN NICOLAS", "COMUNA": "COMUNA 1", "EMPLAZAMIE": "VEREDA", "ANCLAJES": 12, "QUEDA_ABIE": 1, "Lat": -34.6001, "Lon": -58.3797 }, "geometry": { "type": "Point", "coordinates": [ -58.3797, -34.6001 ] } },
{ "type": "Feature", "properties": { "ID": 24, "NUMERO": 24, "NOMBRE": "ALSINA", "DIRECCION": "Alsina, Adolfo&Irigoyen, Bernardo De", "BARRIO": "MONSERRAT", "COMUNA": "COMUNA 1", "EMPLAZAMIE": "PLAZOLETA", "ANCLAJES": 18, "QUEDA_ABIE": 1, "Lat": -34.6108, "Lon": -58.3806 }, "geometry": { "type": "Point", "coordinates": [ -58.3806, -34.6108 ] } },
{ "type": "Feature", "properties": { "ID": 25, "NUMERO": 25, "NOMBRE": "PLAZA GUEMES", "DIRECCION": "Salguero, Jeronimo & Mansilla, Lucio Norberto, General", "BARRIO": "PALERMO", "COMUNA": "COMUNA 14", "EMPLAZAMIE": "PLAZA ABIERTA", "ANCLAJES": 24, "QUEDA_ABIE": 1, "Lat": -34.5898, "Lon": -58.4166 }, "geometry": { "type": "Point", "coordinates": [ -58.4166, -34.5898 ] } },
{ "type": "Feature", "properties": { "ID": 26, "NUMERO": 26, "NOMBRE": "JUANA MANSO I", "DIRECCION": "Manso Juana & De La Barra, Emma", "BARRIO": "PUERTO MADERO", "COMUNA": "COMUNA 1", "EMPLAZAMIE": "VEREDA", "ANCLAJES": 30, "QUEDA_ABIE": 1, "Lat": -34.6009, "Lon": -58.3638 }, "geometry": { "type": "Point", "coordinates": [ -58.3638, -34.6009 ] } },
{ "type": "Feature", "properties": { "ID": 27, "NUMERO": 27, "NOMBRE": "MONTEVIDEO", "DIRECCION": "Cordoba Av. & Montevideo", "BARRIO": "SAN NICOLAS", "COMUNA": "COMUNA 1", "EMPLAZAMIE": "VEREDA", "ANCLAJES": 16, "QUEDA_ABIE": 1, "Lat": -34.5994, "Lon": -58.3897 }, "geometry": { "type": "Point", "coordinates": [ -58.3897, -34.5994 ] } },
{ "type": "Feature", "properties": { "ID": 28, "NUMERO": 28, "NOMBRE": "PLAZA BOEDO", "DIRECCION": "3310 Calvo, Carlos & Sanchez De Loria", "BARRIO": "BOEDO", "COMUNA": "COMUNA 5", "EMPLAZAMIE": "CALZADA", "ANCLAJES": 18, "QUEDA_ABIE": 3, "Lat": -34.6231, "Lon": -58.4124 }, "geometry": { "type": "Point", "coordinates": [ -58.4124, -34.6231 ] } },
{ "type": "Feature", "properties": { "ID": 453, "NUMERO": 28, "NOMBRE": "PLAZA DE LA BANDERA", "DIRECCION": "Av. Gaona 5181", "BARRIO": "VELEZ SARSFIELD", "COMUNA": "COMUNA 10", "EMPLAZAMIE": "VEREDA", "ANCLAJES": 16, "QUEDA_ABIE": 1, "Lat": -34.6295, "Lon": -58.4944 }, "geometry": { "type": "Point", "coordinates": [ -58.4944, -34.6295 ] } },
{ "type": "Feature", "properties": { "ID": 29, "NUMERO": 29, "NOMBRE": "PARQUE CENTENARIO", "DIRECCION": "74 Patricias Argentinas Av. & Estivao", "BARRIO": "CABALLITO", "COMUNA": "COMUNA 6", "EMPLAZAMIE": "PLAZA ABIERTA", "ANCLAJES": 30, "QUEDA_ABIE": 1, "Lat": -34.608, "Lon": -58.4333 }, "geometry": { "type": "Point", "coordinates": [ -58.4333, -34.608 ] } },
{ "type": "Feature", "properties": { "ID": 30, "NUMERO": 30, "NOMBRE": "PEÑA", "DIRECCION": "Peña & Azcuenaga", "BARRIO": "RECOLETA", "COMUNA": "COMUNA 2", "EMPLAZAMIE": "CALZADA", "ANCLAJES": 20, "QUEDA_ABIE": 1, "Lat": -34.5906, "Lon": -58.3974 }, "geometry": { "type": "Point", "coordinates": [ -58.3974, -34.5906 ] } },
{ "type": "Feature", "properties": { "ID": 31, "NUMERO": 31, "NOMBRE": "PADILLA", "DIRECCION": "288 Padilla & Alvarez, Julian", "BARRIO": "VILLA CRESPO", "COMUNA": "COMUNA 15", "EMPLAZAMIE": "PLAZOLETA", "ANCLAJES": 20, "QUEDA_ABIE": 1, "Lat": -34.6031, "Lon": -58.4397 }, "geometry": { "type": "Point", "coordinates": [ -58.4397, -34.6031 ] } },
{ "type": "Feature", "properties": { "ID": 32, "NUMERO": 32, "NOMBRE": "CATEDRAL", "DIRECCION": "67 San Martin", "BARRIO": "SAN NICOLAS", "COMUNA": "COMUNA 1", "EMPLAZAMIE": "VEREDA", "ANCLAJES": 16, "QUEDA_ABIE": 1, "Lat": -34.6072, "Lon": -58.3735 }, "geometry": { "type": "Point", "coordinates": [ -58.3735, -34.6072 ] } },
{ "type": "Feature", "properties": { "ID": 33, "NUMERO": 33, "NOMBRE": "FACULTAD DE MEDICINA", "DIRECCION": "987 Uriburu Jose E., Pres. & Alvear, Marcelo T. De", "BARRIO": "RECOLETA", "COMUNA": "COMUNA 2", "EMPLAZAMIE": "VEREDA", "ANCLAJES": 20, "QUEDA_ABIE": 1, "Lat": -34.5972, "Lon": -58.3988 }, "geometry": { "type": "Point", "coordinates": [ -58.3988, -34.5972 ] } },
{ "type": "Feature", "properties": { "ID": 48, "NUMERO": 34, "NOMBRE": "COLONIA EXPRESS", "DIRECCION": "150 Elvira Rawson Dellepiane", "BARRIO": "PUERTO MADERO", "COMUNA": "COMUNA 4", "EMPLAZAMIE": "VEREDA", "ANCLAJES": 16, "QUEDA_ABIE": 1, "Lat": -34.6243, "Lon": -58.3623 }, "geometry": { "type": "Point", "coordinates": [ -58.3623, -34.6243 ] } },
{ "type": "Feature", "properties": { "ID": 35, "NUMERO": 35, "NOMBRE": "INGENIERO BUTTY", "DIRECCION": "291 Butty, E., Ing. & Alem, Leandro N. Av.", "BARRIO": "RETIRO", "COMUNA": "COMUNA 1", "EMPLAZAMIE": "PLAZOLETA", "ANCLAJES": 20, "QUEDA_ABIE": 1, "Lat": -34.5962, "Lon": -58.3718 }, "geometry": { "type": "Point", "coordinates": [ -58.3718, -34.5962 ] } },
{ "type": "Feature", "properties": { "ID": 36, "NUMERO": 36, "NOMBRE": "MAIPU", "DIRECCION": "300 Maipu & Sarmiento", "BARRIO": "SAN NICOLAS", "COMUNA": "COMUNA 1", "EMPLAZAMIE": "VEREDA", "ANCLAJES": 16, "QUEDA_ABIE": 1, "Lat": -34.6046, "Lon": -58.3766 }, "geometry": { "type": "Point", "coordinates": [ -58.3766, -34.6046 ] } },
{ "type": "Feature", "properties": { "ID": 98, "NUMERO": 37, "NOMBRE": "CLAUDIA PIA BRAUDACCO", "DIRECCION": "Esmeralda & Rivadavia Av.", "BARRIO": "SAN NICOLAS", "COMUNA": "COMUNA 1", "EMPLAZAMIE": "VEREDA", "ANCLAJES": 16, "QUEDA_ABIE": 1, "Lat": -34.6082, "Lon": -58.3778 }, "geometry": { "type": "Point", "coordinates": [ -58.3778, -34.6082 ] } },
{ "type": "Feature", "properties": { "ID": 38, "NUMERO": 38, "NOMBRE": "PLAZA LIBERTAD", "DIRECCION": "990 Cerrito & Alvear, Marcelo T. De", "BARRIO": "RETIRO", "COMUNA": "COMUNA 1", "EMPLAZAMIE": "VEREDA", "ANCLAJES": 20, "QUEDA_ABIE": 1, "Lat": -34.5971, "Lon": -58.3827 }, "geometry": { "type": "Point", "coordinates": [ -58.3827, -34.5971 ] } },
{ "type": "Feature", "properties": { "ID": 39, "NUMERO": 39, "NOMBRE": "CONGRESO II", "DIRECCION": "Rivadavia Av. & Parana", "BARRIO": "MONSERRAT", "COMUNA": "COMUNA 1", "EMPLAZAMIE": "PLAZA ABIERTA", "ANCLAJES": 20, "QUEDA_ABIE": 3, "Lat": -34.6089, "Lon": -58.3877 }, "geometry": { "type": "Point", "coordinates": [ -58.3877, -34.6089 ] } },
{ "type": "Feature", "properties": { "ID": 455, "NUMERO": 39, "NOMBRE": "PLAZA DON BOSCO", "DIRECCION": "Elpidio Gonzales 5181", "BARRIO": "VILLA LURO", "COMUNA": "COMUNA 10", "EMPLAZAMIE": "CALZADA", "ANCLAJES": 16, "QUEDA_ABIE": 1, "Lat": -34.6265, "Lon": -58.5081 }, "geometry": { "type": "Point", "coordinates": [ -58.5081, -34.6265 ] } },
{ "type": "Feature", "properties": { "ID": 40, "NUMERO": 40, "NOMBRE": "SARMIENTO", "DIRECCION": "481 Sarmiento & San Martin", "BARRIO": "SAN NICOLAS", "COMUNA": "COMUNA 1", "EMPLAZAMIE": "VEREDA", "ANCLAJES": 16, "QUEDA_ABIE": 0, "Lat": -34.6044, "Lon": -58.3735 }, "geometry": { "type": "Point", "coordinates": [ -58.3735, -34.6044 ] } },
{ "type": "Feature", "properties": { "ID": 41, "NUMERO": 41, "NOMBRE": "URQUIZA Y RONDEAU", "DIRECCION": "Urquiza, Gral. & Rondeau", "BARRIO": "PARQUE PATRICIOS", "COMUNA": "COMUNA 4", "EMPLAZAMIE": "CALZADA", "ANCLAJES": 20, "QUEDA_ABIE": 0, "Lat": -34.6363, "Lon": -58.4077 }, "geometry": { "type": "Point", "coordinates": [ -58.4077, -34.6363 ] } },
{ "type": "Feature", "properties": { "ID": 42, "NUMERO": 42, "NOMBRE": "DIAGONAL NORTE", "DIRECCION": "929 Av. Pres. Roque Sáenz Peña", "BARRIO": "SAN NICOLAS", "COMUNA": "COMUNA 1", "EMPLAZAMIE": "VEREDA", "ANCLAJES": 18, "QUEDA_ABIE": 0, "Lat": -34.6046, "Lon": -58.3798 }, "geometry": { "type": "Point", "coordinates": [ -58.3798, -34.6046 ] } },
{ "type": "Feature", "properties": { "ID": 423, "NUMERO": 43, "NOMBRE": "PLAZA ALBERTDI", "DIRECCION": "Crisólito Larralde 4544", "BARRIO": "SAAVEDRA", "COMUNA": "COMUNA 12", "EMPLAZAMIE": "CALZADA", "ANCLAJES": 12, "QUEDA_ABIE": 1, "Lat": -34.5593, "Lon": -58.4878 }, "geometry": { "type": "Point", "coordinates": [ -58.4878, -34.5593 ] } },
{ "type": "Feature", "properties": { "ID": 328, "NUMERO": 43, "NOMBRE": "PLAZA HOUSSAY", "DIRECCION": "Junin & Paraguay", "BARRIO": "RECOLETA", "COMUNA": "COMUNA 2", "EMPLAZAMIE": "PLAZA ABIERTA", "ANCLAJES": 8, "QUEDA_ABIE": 3, "Lat": -34.5986, "Lon": -58.3973 }, "geometry": { "type": "Point", "coordinates": [ -58.3973, -34.5986 ] } },
{ "type": "Feature", "properties": { "ID": 44, "NUMERO": 44, "NOMBRE": "ECOPARQUE", "DIRECCION": "3260 Del Libertador Av. & Sarmiento Av.", "BARRIO": "PALERMO", "COMUNA": "COMUNA 14", "EMPLAZAMIE": "VEREDA", "ANCLAJES": 20, "QUEDA_ABIE": 1, "Lat": -34.5758, "Lon": -58.4143 }, "geometry": { "type": "Point", "coordinates": [ -58.4143, -34.5758 ] } },
{ "type": "Feature", "properties": { "ID": 45, "NUMERO": 45, "NOMBRE": "URUGUAY", "DIRECCION": "561 Uruguay & Av. Tucuman", "BARRIO": "SAN NICOLAS", "COMUNA": "COMUNA 1", "EMPLAZAMIE": "VEREDA", "ANCLAJES": 20, "QUEDA_ABIE": 1, "Lat": -34.6022, "Lon": -58.3866 }, "geometry": { "type": "Point", "coordinates": [ -58.3866, -34.6022 ] } },
{ "type": "Feature", "properties": { "ID": 46, "NUMERO": 46, "NOMBRE": "CHILE", "DIRECCION": "718 Peru", "BARRIO": "SAN TELMO", "COMUNA": "COMUNA 1", "EMPLAZAMIE": "VEREDA", "ANCLAJES": 18, "QUEDA_ABIE": 1, "Lat": -34.6164, "Lon": -58.3744 }, "geometry": { "type": "Point", "coordinates": [ -58.3744, -34.6164 ] } },
{ "type": "Feature", "properties": { "ID": 47, "NUMERO": 47, "NOMBRE": "COLEGIO NACIONAL DE BUENOS AIRES", "DIRECCION": "306 Bolivar & Moreno", "BARRIO": "MONSERRAT", "COMUNA": "COMUNA 1", "EMPLAZAMIE": "VEREDA", "ANCLAJES": 16, "QUEDA_ABIE": 0, "Lat": -34.6116, "Lon": -58.3733 }, "geometry": { "type": "Point", "coordinates": [ -58.3733, -34.6116 ] } },
{ "type": "Feature", "properties": { "ID": 442, "NUMERO": 48, "NOMBRE": "PERON", "DIRECCION": "338 Peron, Juan Domingo, Tte. General & 25 De Mayo", "BARRIO": "SAN NICOLAS", "COMUNA": "COMUNA 1", "EMPLAZAMIE": "VEREDA", "ANCLAJES": 16, "QUEDA_ABIE": 0, "Lat": -34.6038, "Lon": -58.3711 }, "geometry": { "type": "Point", "coordinates": [ -58.3711, -34.6038 ] } },
{ "type": "Feature", "properties": { "ID": 49, "NUMERO": 49, "NOMBRE": "33 ORIENTALES", "DIRECCION": "Constituciòn & Treinta Y Tres Orientales", "BARRIO": "BOEDO", "COMUNA": "COMUNA 5", "EMPLAZAMIE": "CALZADA", "ANCLAJES": 16, "QUEDA_ABIE": 1, "Lat": -34.6288, "Lon": -58.4223 }, "geometry": { "type": "Point", "coordinates": [ -58.4223, -34.6288 ] } },
{ "type": "Feature", "properties": { "ID": 50, "NUMERO": 50, "NOMBRE": "HOSPITAL RIVADAVIA", "DIRECCION": "2516 Pereyra Lucena & Las Heras General Av.", "BARRIO": "PALERMO", "COMUNA": "COMUNA 14", "EMPLAZAMIE": "CALZADA", "ANCLAJES": 20, "QUEDA_ABIE": 1, "Lat": -34.5836, "Lon": -58.4012 }, "geometry": { "type": "Point", "coordinates": [ -58.4012, -34.5836 ] } },
{ "type": "Feature", "properties": { "ID": 51, "NUMERO": 51, "NOMBRE": "TUCUMAN", "DIRECCION": "Tucuman & 9 De Julio Av.", "BARRIO": "SAN NICOLAS", "COMUNA": "COMUNA 1", "EMPLAZAMIE": "PLAZOLETA", "ANCLAJES": 12, "QUEDA_ABIE": 1, "Lat": -34.6014, "Lon": -58.3819 }, "geometry": { "type": "Point", "coordinates": [ -58.3819, -34.6014 ] } },
{ "type": "Feature", "properties": { "ID": 456, "NUMERO": 52, "NOMBRE": "PLAZA JUAN S. SALABERRY", "DIRECCION": "Av. Juan Bautista Alberdi 6392", "BARRIO": "MATADERO", "COMUNA": "COMUNA 9", "EMPLAZAMIE": "VEREDA", "ANCLAJES": 16, "QUEDA_ABIE": 0, "Lat": -34.6555, "Lon": -58.507 }, "geometry": { "type": "Point", "coordinates": [ -58.507, -34.6555 ] } },
{ "type": "Feature", "properties": { "ID": 52, "NUMERO": 52, "NOMBRE": "SANCHEZ DE BUSTAMANTE", "DIRECCION": "212 Sanchez De Bustamante y Peron", "BARRIO": "ALMAGRO", "COMUNA": "COMUNA 5", "EMPLAZAMIE": "CALZADA", "ANCLAJES": 20, "QUEDA_ABIE": 3, "Lat": -34.6069, "Lon": -58.4148 }, "geometry": { "type": "Point", "coordinates": [ -58.4148, -34.6069 ] } },
{ "type": "Feature", "properties": { "ID": 53, "NUMERO": 53, "NOMBRE": "RICARDO ROJAS", "DIRECCION": "1068 San Martin & Rojas, Ricardo, Dr.", "BARRIO": "RETIRO", "COMUNA": "COMUNA 1", "EMPLAZAMIE": "VEREDA", "ANCLAJES": 20, "QUEDA_ABIE": 0, "Lat": -34.5954, "Lon": -58.3744 }, "geometry": { "type": "Point", "coordinates": [ -58.3744, -34.5954 ] } },
{ "type": "Feature", "properties": { "ID": 54, "NUMERO": 54, "NOMBRE": "ACUÑA DE FIGUEROA", "DIRECCION": "Lavalle & Acuña De Figueroa, Francisco", "BARRIO": "ALMAGRO", "COMUNA": "COMUNA 5", "EMPLAZAMIE": "CALZADA", "ANCLAJES": 20, "QUEDA_ABIE": 1, "Lat": -34.5982, "Lon": -58.4219 }, "geometry": { "type": "Point", "coordinates": [ -58.4219, -34.5982 ] } },
{ "type": "Feature", "properties": { "ID": 55, "NUMERO": 55, "NOMBRE": "BOUCHARD", "DIRECCION": "101 Viamonte & Bouchard", "BARRIO": "SAN NICOLAS", "COMUNA": "COMUNA 1", "EMPLAZAMIE": "CALZADA", "ANCLAJES": 20, "QUEDA_ABIE": 0, "Lat": -34.5993, "Lon": -58.3696 }, "geometry": { "type": "Point", "coordinates": [ -58.3696, -34.5993 ] } },
{ "type": "Feature", "properties": { "ID": 56, "NUMERO": 56, "NOMBRE": "PLAZA PALERMO VIEJO", "DIRECCION": "1829 Armenia & Costa Rica", "BARRIO": "PALERMO", "COMUNA": "COMUNA 14", "EMPLAZAMIE": "CALZADA", "ANCLAJES": 16, "QUEDA_ABIE": 1, "Lat": -34.5887, "Lon": -58.4262 }, "geometry": { "type": "Point", "coordinates": [ -58.4262, -34.5887 ] } },
{ "type": "Feature", "properties": { "ID": 57, "NUMERO": 57, "NOMBRE": "BELGRANO", "DIRECCION": "482 Balcarce & Republica Bolivariana De Venezuela", "BARRIO": "MONSERRAT", "COMUNA": "COMUNA 1", "EMPLAZAMIE": "VEREDA", "ANCLAJES": 16, "QUEDA_ABIE": 0, "Lat": -34.6134, "Lon": -58.3707 }, "geometry": { "type": "Point", "coordinates": [ -58.3707, -34.6134 ] } },
{ "type": "Feature", "properties": { "ID": 58, "NUMERO": 58, "NOMBRE": "MINISTRO CARRANZA", "DIRECCION": "Santa Fe Av. & Dorrego", "BARRIO": "PALERMO", "COMUNA": "COMUNA 14", "EMPLAZAMIE": "VEREDA", "ANCLAJES": 20, "QUEDA_ABIE": 1, "Lat": -34.5749, "Lon": -58.4353 }, "geometry": { "type": "Point", "coordinates": [ -58.4353, -34.5749 ] } },
{ "type": "Feature", "properties": { "ID": 216, "NUMERO": 59, "NOMBRE": "CORONEL DIAZ", "DIRECCION": "3328 Guemes & Diaz, Cnel. Av.", "BARRIO": "PALERMO", "COMUNA": "COMUNA 14", "EMPLAZAMIE": "CALZADA", "ANCLAJES": 20, "QUEDA_ABIE": 1, "Lat": -34.5902, "Lon": -58.4116 }, "geometry": { "type": "Point", "coordinates": [ -58.4116, -34.5902 ] } },
{ "type": "Feature", "properties": { "ID": 60, "NUMERO": 60, "NOMBRE": "25 DE MAYO", "DIRECCION": "527 25 De Mayo & Lavalle", "BARRIO": "SAN NICOLAS", "COMUNA": "COMUNA 1", "EMPLAZAMIE": "VEREDA", "ANCLAJES": 20, "QUEDA_ABIE": 1, "Lat": -34.6015, "Lon": -58.3712 }, "geometry": { "type": "Point", "coordinates": [ -58.3712, -34.6015 ] } },
{ "type": "Feature", "properties": { "ID": 444, "NUMERO": 61, "NOMBRE": "MINISTERIO DE ECONOMIA", "DIRECCION": "Balcarce & Yrigoyen, Hipolito Av.", "BARRIO": "MONSERRAT", "COMUNA": "COMUNA 1", "EMPLAZAMIE": "VEREDA", "ANCLAJES": 24, "QUEDA_ABIE": 1, "Lat": -34.6088, "Lon": -58.3707 }, "geometry": { "type": "Point", "coordinates": [ -58.3707, -34.6088 ] } },
{ "type": "Feature", "properties": { "ID": 62, "NUMERO": 62, "NOMBRE": "CORDOBA", "DIRECCION": "820 Maipu & Cordoba Av.", "BARRIO": "RETIRO", "COMUNA": "COMUNA 1", "EMPLAZAMIE": "VEREDA", "ANCLAJES": 20, "QUEDA_ABIE": 0, "Lat": -34.5985, "Lon": -58.3769 }, "geometry": { "type": "Point", "coordinates": [ -58.3769, -34.5985 ] } },
{ "type": "Feature", "properties": { "ID": 63, "NUMERO": 63, "NOMBRE": "RECONQUISTA", "DIRECCION": "776 Reconquista & Cordoba Av.", "BARRIO": "SAN NICOLAS", "COMUNA": "COMUNA 1", "EMPLAZAMIE": "VEREDA", "ANCLAJES": 24, "QUEDA_ABIE": 1, "Lat": -34.5985, "Lon": -58.3728 }, "geometry": { "type": "Point", "coordinates": [ -58.3728, -34.5985 ] } },
{ "type": "Feature", "properties": { "ID": 64, "NUMERO": 64, "NOMBRE": "RIOBAMBA", "DIRECCION": "1264 Riobamba & Juncal", "BARRIO": "RECOLETA", "COMUNA": "COMUNA 2", "EMPLAZAMIE": "CALZADA", "ANCLAJES": 20, "QUEDA_ABIE": 1, "Lat": -34.594, "Lon": -58.3945 }, "geometry": { "type": "Point", "coordinates": [ -58.3945, -34.594 ] } },
{ "type": "Feature", "properties": { "ID": 65, "NUMERO": 65, "NOMBRE": "JULIAN ALVAREZ", "DIRECCION": "3822 Guemes & Alvarez, Julian", "BARRIO": "PALERMO", "COMUNA": "COMUNA 14", "EMPLAZAMIE": "CALZADA", "ANCLAJES": 20, "QUEDA_ABIE": 1, "Lat": -34.5873, "Lon": -58.416 }, "geometry": { "type": "Point", "coordinates": [ -58.416, -34.5873 ] } },
{ "type": "Feature", "properties": { "ID": 66, "NUMERO": 66, "NOMBRE": "BILLINGHURST", "DIRECCION": "3508 Carcova, De La & Soler", "BARRIO": "RECOLETA", "COMUNA": "COMUNA 2", "EMPLAZAMIE": "CALZADA", "ANCLAJES": 20, "QUEDA_ABIE": 1, "Lat": -34.5947, "Lon": -58.4139 }, "geometry": { "type": "Point", "coordinates": [ -58.4139, -34.5947 ] } },
{ "type": "Feature", "properties": { "ID": 176, "NUMERO": 67, "NOMBRE": "PARQUE SARMIENTO I", "DIRECCION": "Av. Dr. Ricardo Balbin 4402", "BARRIO": "SAAVEDRA", "COMUNA": "COMUNA 12", "EMPLAZAMIE": "VEREDA", "ANCLAJES": 16, "QUEDA_ABIE": 1, "Lat": -34.5553, "Lon": -58.4948 }, "geometry": { "type": "Point", "coordinates": [ -58.4948, -34.5553 ] } },
{ "type": "Feature", "properties": { "ID": 218, "NUMERO": 67, "NOMBRE": "SENILLOSA", "DIRECCION": "1905 Senillosa & Zañartu", "BARRIO": "PARQUE CHACABUCO", "COMUNA": "COMUNA 7", "EMPLAZAMIE": "CALZADA", "ANCLAJES": 16, "QUEDA_ABIE": 3, "Lat": -34.6385, "Lon": -58.4255 }, "geometry": { "type": "Point", "coordinates": [ -58.4255, -34.6385 ] } },
{ "type": "Feature", "properties": { "ID": 462, "NUMERO": 68, "NOMBRE": "MINISTERIO DE DESARROLLO HUMANO", "DIRECCION": "Avenida Piedrabuena 3109", "BARRIO": "VILLA LUGANO", "COMUNA": "COMUNA 8", "EMPLAZAMIE": "VEREDA", "ANCLAJES": 16, "QUEDA_ABIE": 0, "Lat": -34.6701, "Lon": -58.4956 }, "geometry": { "type": "Point", "coordinates": [ -58.4956, -34.6701 ] } },
{ "type": "Feature", "properties": { "ID": 68, "NUMERO": 68, "NOMBRE": "RIVAROLA", "DIRECCION": "175 Rivarola, Rodolfo, Dr. & Peron, Juan Domingo, Tte. General", "BARRIO": "SAN NICOLAS", "COMUNA": "COMUNA 1", "EMPLAZAMIE": "CALZADA", "ANCLAJES": 20, "QUEDA_ABIE": 3, "Lat": -34.6066, "Lon": -58.3854 }, "geometry": { "type": "Point", "coordinates": [ -58.3854, -34.6066 ] } },
{ "type": "Feature", "properties": { "ID": 69, "NUMERO": 69, "NOMBRE": "ECUADOR", "DIRECCION": "1226 Ecuador & Mansilla, Lucio Norberto, General", "BARRIO": "RECOLETA", "COMUNA": "COMUNA 2", "EMPLAZAMIE": "PLAZOLETA", "ANCLAJES": 16, "QUEDA_ABIE": 1, "Lat": -34.5958, "Lon": -58.4046 }, "geometry": { "type": "Point", "coordinates": [ -58.4046, -34.5958 ] } },
{ "type": "Feature", "properties": { "ID": 70, "NUMERO": 70, "NOMBRE": "ARAOZ", "DIRECCION": "1413 Araoz & Gorriti", "BARRIO": "PALERMO", "COMUNA": "COMUNA 14", "EMPLAZAMIE": "CALZADA", "ANCLAJES": 20, "QUEDA_ABIE": 1, "Lat": -34.5927, "Lon": -58.4258 }, "geometry": { "type": "Point", "coordinates": [ -58.4258, -34.5927 ] } },
{ "type": "Feature", "properties": { "ID": 71, "NUMERO": 71, "NOMBRE": "CERRITO", "DIRECCION": "Saenz Peña, Roque, Pres. Diagonal Norte Av. & Cerrito", "BARRIO": "SAN NICOLAS", "COMUNA": "COMUNA 1", "EMPLAZAMIE": "VEREDA", "ANCLAJES": 30, "QUEDA_ABIE": 1, "Lat": -34.6026, "Lon": -58.3838 }, "geometry": { "type": "Point", "coordinates": [ -58.3838, -34.6026 ] } },
{ "type": "Feature", "properties": { "ID": 72, "NUMERO": 72, "NOMBRE": "VENEZUELA", "DIRECCION": "490 Peru & Republica Bolivariana De Venezuela", "BARRIO": "MONSERRAT", "COMUNA": "COMUNA 1", "EMPLAZAMIE": "VEREDA", "ANCLAJES": 18, "QUEDA_ABIE": 0, "Lat": -34.6137, "Lon": -58.3746 }, "geometry": { "type": "Point", "coordinates": [ -58.3746, -34.6137 ] } },
{ "type": "Feature", "properties": { "ID": 73, "NUMERO": 73, "NOMBRE": "RUY DIAZ DE GUZMAN", "DIRECCION": "Ruy Diaz De Guzman &Garcia, Martin Av.", "BARRIO": "BOCA", "COMUNA": "COMUNA 4", "EMPLAZAMIE": "PLAZOLETA", "ANCLAJES": 16, "QUEDA_ABIE": 1, "Lat": -34.6305, "Lon": -58.3716 }, "geometry": { "type": "Point", "coordinates": [ -58.3716, -34.6305 ] } },
{ "type": "Feature", "properties": { "ID": 74, "NUMERO": 74, "NOMBRE": "INSTITUTO LELOIR", "DIRECCION": "Patricias Argentinas Av. & Ibarbourou, Juana De", "BARRIO": "CABALLITO", "COMUNA": "COMUNA 6", "EMPLAZAMIE": "VEREDA", "ANCLAJES": 30, "QUEDA_ABIE": 1, "Lat": -34.6046, "Lon": -58.4348 }, "geometry": { "type": "Point", "coordinates": [ -58.4348, -34.6046 ] } },
{ "type": "Feature", "properties": { "ID": 75, "NUMERO": 75, "NOMBRE": "PLAZA PRIMERO DE MAYO", "DIRECCION": "238 Pichincha", "BARRIO": "BALVANERA", "COMUNA": "COMUNA 3", "EMPLAZAMIE": "CALZADA", "ANCLAJES": 20, "QUEDA_ABIE": 1, "Lat": -34.6123, "Lon": -58.3989 }, "geometry": { "type": "Point", "coordinates": [ -58.3989, -34.6123 ] } },
{ "type": "Feature", "properties": { "ID": 76, "NUMERO": 76, "NOMBRE": "AYACUCHO", "DIRECCION": "Ayacucho &Peron, Juan Domingo, Tte. General", "BARRIO": "BALVANERA", "COMUNA": "COMUNA 3", "EMPLAZAMIE": "CALZADA", "ANCLAJES": 20, "QUEDA_ABIE": 1, "Lat": -34.607, "Lon": -58.395 }, "geometry": { "type": "Point", "coordinates": [ -58.395, -34.607 ] } },
{ "type": "Feature", "properties": { "ID": 77, "NUMERO": 77, "NOMBRE": "SARANDI", "DIRECCION": "176 Sarandi & Alsina, Adolfo", "BARRIO": "BALVANERA", "COMUNA": "COMUNA 3", "EMPLAZAMIE": "CALZADA", "ANCLAJES": 20, "QUEDA_ABIE": 0, "Lat": -34.6114, "Lon": -58.3947 }, "geometry": { "type": "Point", "coordinates": [ -58.3947, -34.6114 ] } },
{ "type": "Feature", "properties": { "ID": 78, "NUMERO": 78, "NOMBRE": "SUIPACHA Y ARROYO", "DIRECCION": "1420 Suipacha & Arroyo", "BARRIO": "RETIRO", "COMUNA": "COMUNA 1", "EMPLAZAMIE": "VEREDA", "ANCLAJES": 20, "QUEDA_ABIE": 0, "Lat": -34.5909, "Lon": -58.38 }, "geometry": { "type": "Point", "coordinates": [ -58.38, -34.5909 ] } },
{ "type": "Feature", "properties": { "ID": 79, "NUMERO": 79, "NOMBRE": "AZUCENA VILLAFLOR", "DIRECCION": "Villaflor, Azucena & Dealessi, Pierina", "BARRIO": "PUERTO MADERO", "COMUNA": "COMUNA 1", "EMPLAZAMIE": "PLAZOLETA", "ANCLAJES": 30, "QUEDA_ABIE": 1, "Lat": -34.612, "Lon": -58.3639 }, "geometry": { "type": "Point", "coordinates": [ -58.3639, -34.612 ] } },
{ "type": "Feature", "properties": { "ID": 80, "NUMERO": 80, "NOMBRE": "DOBLAS", "DIRECCION": "608 Doblas & Valle", "BARRIO": "CABALLITO", "COMUNA": "COMUNA 6", "EMPLAZAMIE": "CALZADA", "ANCLAJES": 16, "QUEDA_ABIE": 0, "Lat": -34.6242, "Lon": -58.4303 }, "geometry": { "type": "Point", "coordinates": [ -58.4303, -34.6242 ] } },
{ "type": "Feature", "properties": { "ID": 443, "NUMERO": 81, "NOMBRE": "BALCARCE", "DIRECCION": "683 Balcarce & Chile Av.", "BARRIO": "MONSERRAT", "COMUNA": "COMUNA 1", "EMPLAZAMIE": "VEREDA", "ANCLAJES": 18, "QUEDA_ABIE": 0, "Lat": -34.6157, "Lon": -58.3706 }, "geometry": { "type": "Point", "coordinates": [ -58.3706, -34.6157 ] } },
{ "type": "Feature", "properties": { "ID": 82, "NUMERO": 82, "NOMBRE": "HOSPITAL ITALIANO", "DIRECCION": "394 Rawson & Potosi", "BARRIO": "ALMAGRO", "COMUNA": "COMUNA 5", "EMPLAZAMIE": "CALZADA", "ANCLAJES": 20, "QUEDA_ABIE": 1, "Lat": -34.6074, "Lon": -58.4262 }, "geometry": { "type": "Point", "coordinates": [ -58.4262, -34.6074 ] } },
{ "type": "Feature", "properties": { "ID": 83, "NUMERO": 83, "NOMBRE": "PARANA", "DIRECCION": "1590 Lavalle & Montevideo", "BARRIO": "SAN NICOLAS", "COMUNA": "COMUNA 1", "EMPLAZAMIE": "CALZADA", "ANCLAJES": 20, "QUEDA_ABIE": 1, "Lat": -34.6031, "Lon": -58.3893 }, "geometry": { "type": "Point", "coordinates": [ -58.3893, -34.6031 ] } },
{ "type": "Feature", "properties": { "ID": 84, "NUMERO": 84, "NOMBRE": "LAVALLE", "DIRECCION": "595 Ayacucho &Tucuman", "BARRIO": "BALVANERA", "COMUNA": "COMUNA 3", "EMPLAZAMIE": "CALZADA", "ANCLAJES": 20, "QUEDA_ABIE": 0, "Lat": -34.6023, "Lon": -58.3955 }, "geometry": { "type": "Point", "coordinates": [ -58.3955, -34.6023 ] } },
{ "type": "Feature", "properties": { "ID": 85, "NUMERO": 85, "NOMBRE": "AGUERO", "DIRECCION": "Aguero & Mansilla, Lucio Norberto, General", "BARRIO": "RECOLETA", "COMUNA": "COMUNA 2", "EMPLAZAMIE": "CALZADA", "ANCLAJES": 20, "QUEDA_ABIE": 1, "Lat": -34.5945, "Lon": -58.4089 }, "geometry": { "type": "Point", "coordinates": [ -58.4089, -34.5945 ] } },
{ "type": "Feature", "properties": { "ID": 86, "NUMERO": 86, "NOMBRE": "SAAVEDRA", "DIRECCION": "1019 Saavedra & Calvo, Carlos", "BARRIO": "SAN CRISTOBAL", "COMUNA": "COMUNA 3", "EMPLAZAMIE": "CALZADA", "ANCLAJES": 20, "QUEDA_ABIE": 1, "Lat": -34.6213, "Lon": -58.4018 }, "geometry": { "type": "Point", "coordinates": [ -58.4018, -34.6213 ] } },
{ "type": "Feature", "properties": { "ID": 87, "NUMERO": 87, "NOMBRE": "GUAYAQUIL", "DIRECCION": "Guayaquil & Doblas", "BARRIO": "CABALLITO", "COMUNA": "COMUNA 6", "EMPLAZAMIE": "CALZADA", "ANCLAJES": 16, "QUEDA_ABIE": 1, "Lat": -34.6198, "Lon": -58.4313 }, "geometry": { "type": "Point", "coordinates": [ -58.4313, -34.6198 ] } },
{ "type": "Feature", "properties": { "ID": 88, "NUMERO": 88, "NOMBRE": "MISIONES", "DIRECCION": "209 Misiones & Alsina, Adolfo", "BARRIO": "BALVANERA", "COMUNA": "COMUNA 3", "EMPLAZAMIE": "CALZADA", "ANCLAJES": 20, "QUEDA_ABIE": 0, "Lat": -34.6126, "Lon": -58.4044 }, "geometry": { "type": "Point", "coordinates": [ -58.4044, -34.6126 ] } },
{ "type": "Feature", "properties": { "ID": 89, "NUMERO": 89, "NOMBRE": "CABELLO", "DIRECCION": "3082 Cabello", "BARRIO": "PALERMO", "COMUNA": "COMUNA 14", "EMPLAZAMIE": "CALZADA", "ANCLAJES": 20, "QUEDA_ABIE": 1, "Lat": -34.5825, "Lon": -58.4054 }, "geometry": { "type": "Point", "coordinates": [ -58.4054, -34.5825 ] } },
{ "type": "Feature", "properties": { "ID": 90, "NUMERO": 90, "NOMBRE": "GUTIERREZ", "DIRECCION": "2685 Gutierrez, Juan Maria & Aguero", "BARRIO": "RECOLETA", "COMUNA": "COMUNA 2", "EMPLAZAMIE": "CALZADA", "ANCLAJES": 19, "QUEDA_ABIE": 0, "Lat": -34.5866, "Lon": -58.3999 }, "geometry": { "type": "Point", "coordinates": [ -58.3999, -34.5866 ] } },
{ "type": "Feature", "properties": { "ID": 91, "NUMERO": 91, "NOMBRE": "PASCO", "DIRECCION": "708 Pasco & Chile", "BARRIO": "BALVANERA", "COMUNA": "COMUNA 3", "EMPLAZAMIE": "CALZADA", "ANCLAJES": 20, "QUEDA_ABIE": 1, "Lat": -34.6174, "Lon": -58.3976 }, "geometry": { "type": "Point", "coordinates": [ -58.3976, -34.6174 ] } },
{ "type": "Feature", "properties": { "ID": 92, "NUMERO": 92, "NOMBRE": "SALCEDO", "DIRECCION": "2908 Salcedo & Dean Funes", "BARRIO": "PARQUE PATRICIOS", "COMUNA": "COMUNA 4", "EMPLAZAMIE": "CALZADA", "ANCLAJES": 20, "QUEDA_ABIE": 1, "Lat": -34.6318, "Lon": -58.4049 }, "geometry": { "type": "Point", "coordinates": [ -58.4049, -34.6318 ] } },
{ "type": "Feature", "properties": { "ID": 93, "NUMERO": 93, "NOMBRE": "CARLOS CALVO", "DIRECCION": "1010 Sarandi & Calvo, Carlos", "BARRIO": "SAN CRISTOBAL", "COMUNA": "COMUNA 3", "EMPLAZAMIE": "CALZADA", "ANCLAJES": 20, "QUEDA_ABIE": 1, "Lat": -34.6207, "Lon": -58.3944 }, "geometry": { "type": "Point", "coordinates": [ -58.3944, -34.6207 ] } },
{ "type": "Feature", "properties": { "ID": 94, "NUMERO": 94, "NOMBRE": "GUZMAN", "DIRECCION": "129 Av. Guzman & Leiva", "BARRIO": "CHACARITA", "COMUNA": "COMUNA 15", "EMPLAZAMIE": "PLAZA ABIERTA", "ANCLAJES": 30, "QUEDA_ABIE": 1, "Lat": -34.5917, "Lon": -58.4497 }, "geometry": { "type": "Point", "coordinates": [ -58.4497, -34.5917 ] } },
{ "type": "Feature", "properties": { "ID": 95, "NUMERO": 95, "NOMBRE": "ESMERALDA", "DIRECCION": "516 Esmeralda", "BARRIO": "SAN NICOLAS", "COMUNA": "COMUNA 1", "EMPLAZAMIE": "VEREDA", "ANCLAJES": 16, "QUEDA_ABIE": 1, "Lat": -34.6021, "Lon": -58.3782 }, "geometry": { "type": "Point", "coordinates": [ -58.3782, -34.6021 ] } },
{ "type": "Feature", "properties": { "ID": 96, "NUMERO": 96, "NOMBRE": "CARLOS GARDEL", "DIRECCION": "3302 Guardia Vieja & Aguero", "BARRIO": "BALVANERA", "COMUNA": "COMUNA 3", "EMPLAZAMIE": "CALZADA", "ANCLAJES": 20, "QUEDA_ABIE": 1, "Lat": -34.6029, "Lon": -58.4115 }, "geometry": { "type": "Point", "coordinates": [ -58.4115, -34.6029 ] } },
{ "type": "Feature", "properties": { "ID": 220, "NUMERO": 97, "NOMBRE": "AVELINO DIAZ", "DIRECCION": "Diaz, Avelino & Doblas", "BARRIO": "PARQUE CHACABUCO", "COMUNA": "COMUNA 7", "EMPLAZAMIE": "CALZADA", "ANCLAJES": 16, "QUEDA_ABIE": 1, "Lat": -34.6353, "Lon": -58.4275 }, "geometry": { "type": "Point", "coordinates": [ -58.4275, -34.6353 ] } },
{ "type": "Feature", "properties": { "ID": 61, "NUMERO": 98, "NOMBRE": "Benito Juarez", "DIRECCION": "2221 Benito Juarez (y Alvarez Jonte)", "BARRIO": "MONTE CASTRO", "COMUNA": "COMUNA 10", "EMPLAZAMIE": "CALZADA", "ANCLAJES": 12, "QUEDA_ABIE": 1, "Lat": -34.619, "Lon": -58.5047 }, "geometry": { "type": "Point", "coordinates": [ -58.5047, -34.619 ] } },
{ "type": "Feature", "properties": { "ID": 500, "NUMERO": 98, "NOMBRE": "BELGRANO Y ROCA", "DIRECCION": "Roca, Julio A., Presidente Diagonal Sur Av. y Belgrano Av.", "BARRIO": "MONSERRAT", "COMUNA": "COMUNA 1", "EMPLAZAMIE": "VEREDA", "ANCLAJES": 0, "QUEDA_ABIE": 3, "Lat": -34.6129, "Lon": -58.3776 }, "geometry": { "type": "Point", "coordinates": [ -58.3776, -34.6129 ] } },
{ "type": "Feature", "properties": { "ID": 99, "NUMERO": 99, "NOMBRE": "MALABIA", "DIRECCION": "780 Malabia & Loyola", "BARRIO": "VILLA CRESPO", "COMUNA": "COMUNA 15", "EMPLAZAMIE": "CALZADA", "ANCLAJES": 20, "QUEDA_ABIE": 1, "Lat": -34.5963, "Lon": -58.4357 }, "geometry": { "type": "Point", "coordinates": [ -58.4357, -34.5963 ] } },
{ "type": "Feature", "properties": { "ID": 329, "NUMERO": 100, "NOMBRE": "PLAZA GURRUCHAGA", "DIRECCION": "1078 Gurruchaga", "BARRIO": "VILLA CRESPO", "COMUNA": "COMUNA 15", "EMPLAZAMIE": "CALZADA", "ANCLAJES": 20, "QUEDA_ABIE": 1, "Lat": -34.5931, "Lon": -58.4351 }, "geometry": { "type": "Point", "coordinates": [ -58.4351, -34.5931 ] } },
{ "type": "Feature", "properties": { "ID": 101, "NUMERO": 101, "NOMBRE": "FITZ ROY", "DIRECCION": "1092 Fitz Roy & Loyola", "BARRIO": "CHACARITA", "COMUNA": "COMUNA 15", "EMPLAZAMIE": "CALZADA", "ANCLAJES": 20, "QUEDA_ABIE": 1, "Lat": -34.5891, "Lon": -58.4423 }, "geometry": { "type": "Point", "coordinates": [ -58.4423, -34.5891 ] } },
{ "type": "Feature", "properties": { "ID": 102, "NUMERO": 102, "NOMBRE": "ROSETI", "DIRECCION": "50 Roseti & Dorrego Av.", "BARRIO": "CHACARITA", "COMUNA": "COMUNA 15", "EMPLAZAMIE": "CALZADA", "ANCLAJES": 12, "QUEDA_ABIE": 1, "Lat": -34.5864, "Lon": -58.446 }, "geometry": { "type": "Point", "coordinates": [ -58.446, -34.5864 ] } },
{ "type": "Feature", "properties": { "ID": 242, "NUMERO": 103, "NOMBRE": "MALBA", "DIRECCION": "3051 San Martin De Tours & Figueroa Alcorta, Pres. Av.", "BARRIO": "PALERMO", "COMUNA": "COMUNA 14", "EMPLAZAMIE": "CALZADA", "ANCLAJES": 20, "QUEDA_ABIE": 1, "Lat": -34.5771, "Lon": -58.403 }, "geometry": { "type": "Point", "coordinates": [ -58.403, -34.5771 ] } },
{ "type": "Feature", "properties": { "ID": 104, "NUMERO": 104, "NOMBRE": "FEDERICO LACROZE", "DIRECCION": "1100 Guzman Av. & Corrientes Av.", "BARRIO": "CHACARITA", "COMUNA": "COMUNA 15", "EMPLAZAMIE": "PLAZOLETA", "ANCLAJES": 30, "QUEDA_ABIE": 1, "Lat": -34.5876, "Lon": -58.4551 }, "geometry": { "type": "Point", "coordinates": [ -58.4551, -34.5876 ] } },
{ "type": "Feature", "properties": { "ID": 105, "NUMERO": 105, "NOMBRE": "15 DE NOVIEMBRE", "DIRECCION": "2687 15 De Noviembre De 1889 & Catamarca", "BARRIO": "PARQUE PATRICIOS", "COMUNA": "COMUNA 4", "EMPLAZAMIE": "CALZADA", "ANCLAJES": 16, "QUEDA_ABIE": 3, "Lat": -34.634, "Lon": -58.401 }, "geometry": { "type": "Point", "coordinates": [ -58.401, -34.634 ] } },
{ "type": "Feature", "properties": { "ID": 68, "NUMERO": 105, "NOMBRE": "PARQUE SAAVEDRA", "DIRECCION": "García del Río 3590", "BARRIO": "SAAVEDRA", "COMUNA": "COMUNA 12", "EMPLAZAMIE": "CALZADA", "ANCLAJES": 16, "QUEDA_ABIE": 1, "Lat": -34.5521, "Lon": -58.4805 }, "geometry": { "type": "Point", "coordinates": [ -58.4805, -34.5521 ] } },
{ "type": "Feature", "properties": { "ID": 461, "NUMERO": 106, "NOMBRE": "MOSCONI Y CONSTITUYENTES", "DIRECCION": "Av. Constituyente 4710", "BARRIO": "PARQUE CHAS", "COMUNA": "COMUNA 15", "EMPLAZAMIE": "VEREDA", "ANCLAJES": 16, "QUEDA_ABIE": 1, "Lat": -34.5809, "Lon": -58.4936 }, "geometry": { "type": "Point", "coordinates": [ -58.4936, -34.5809 ] } },
{ "type": "Feature", "properties": { "ID": 106, "NUMERO": 106, "NOMBRE": "RINCON", "DIRECCION": "2091 Republica Bolivariana De Venezuela", "BARRIO": "BALVANERA", "COMUNA": "COMUNA 3", "EMPLAZAMIE": "CALZADA", "ANCLAJES": 20, "QUEDA_ABIE": 3, "Lat": -34.6152, "Lon": -58.3959 }, "geometry": { "type": "Point", "coordinates": [ -58.3959, -34.6152 ] } },
{ "type": "Feature", "properties": { "ID": 107, "NUMERO": 107, "NOMBRE": "HOSPITAL GARRAHAN", "DIRECCION": "Brasil & Pichincha", "BARRIO": "PARQUE PATRICIOS", "COMUNA": "COMUNA 4", "EMPLAZAMIE": "VEREDA", "ANCLAJES": 16, "QUEDA_ABIE": 1, "Lat": -34.6303, "Lon": -58.3963 }, "geometry": { "type": "Point", "coordinates": [ -58.3963, -34.6303 ] } },
{ "type": "Feature", "properties": { "ID": 203, "NUMERO": 108, "NOMBRE": "USINA DEL ARTE", "DIRECCION": "Caffarena, Agustin R. & Don Pedro De Mendoza Av.", "BARRIO": "BOCA", "COMUNA": "COMUNA 4", "EMPLAZAMIE": "VEREDA", "ANCLAJES": 24, "QUEDA_ABIE": 1, "Lat": -34.6289, "Lon": -58.3562 }, "geometry": { "type": "Point", "coordinates": [ -58.3562, -34.6289 ] } },
{ "type": "Feature", "properties": { "ID": 77, "NUMERO": 109, "NOMBRE": "ESTACION PUEYRREDON", "DIRECCION": "Bolivia 5071", "BARRIO": "VILLA PUEYRREDON", "COMUNA": "COMUNA 12", "EMPLAZAMIE": "VEREDA", "ANCLAJES": 16, "QUEDA_ABIE": 1, "Lat": -34.5811, "Lon": -58.5015 }, "geometry": { "type": "Point", "coordinates": [ -58.5015, -34.5811 ] } },
{ "type": "Feature", "properties": { "ID": 225, "NUMERO": 109, "NOMBRE": "LERMA", "DIRECCION": "175 Lerma & Alvarez, Julian", "BARRIO": "VILLA CRESPO", "COMUNA": "COMUNA 15", "EMPLAZAMIE": "CALZADA", "ANCLAJES": 20, "QUEDA_ABIE": 3, "Lat": -34.5968, "Lon": -58.4295 }, "geometry": { "type": "Point", "coordinates": [ -58.4295, -34.5968 ] } },
{ "type": "Feature", "properties": { "ID": 110, "NUMERO": 110, "NOMBRE": "GUARDIA VIEJA", "DIRECCION": "3500 Guardia Vieja & Billinghurst", "BARRIO": "ALMAGRO", "COMUNA": "COMUNA 5", "EMPLAZAMIE": "CALZADA", "ANCLAJES": 20, "QUEDA_ABIE": 3, "Lat": -34.6022, "Lon": -58.4141 }, "geometry": { "type": "Point", "coordinates": [ -58.4141, -34.6022 ] } },
{ "type": "Feature", "properties": { "ID": 457, "NUMERO": 110, "NOMBRE": "PLAZA CD DE BANFF", "DIRECCION": "Roma 786", "BARRIO": "VERSALLES", "COMUNA": "COMUNA 10", "EMPLAZAMIE": "CALZADA", "ANCLAJES": 8, "QUEDA_ABIE": 1, "Lat": -34.6281, "Lon": -58.5217 }, "geometry": { "type": "Point", "coordinates": [ -58.5217, -34.6281 ] } },
{ "type": "Feature", "properties": { "ID": 111, "NUMERO": 111, "NOMBRE": "MACACHA GUEMES", "DIRECCION": "350 Guemes, Macacha & Dealessi, Pierina", "BARRIO": "PUERTO MADERO", "COMUNA": "COMUNA 1", "EMPLAZAMIE": "PLAZOLETA", "ANCLAJES": 30, "QUEDA_ABIE": 1, "Lat": -34.6048, "Lon": -58.3639 }, "geometry": { "type": "Point", "coordinates": [ -58.3639, -34.6048 ] } },
{ "type": "Feature", "properties": { "ID": 112, "NUMERO": 112, "NOMBRE": "9 DE JULIO", "DIRECCION": "320 Irigoyen, Bernardo De & Moreno", "BARRIO": "MONSERRAT", "COMUNA": "COMUNA 1", "EMPLAZAMIE": "PLAZOLETA", "ANCLAJES": 20, "QUEDA_ABIE": 1, "Lat": -34.6121, "Lon": -58.3805 }, "geometry": { "type": "Point", "coordinates": [ -58.3805, -34.6121 ] } },
{ "type": "Feature", "properties": { "ID": 215, "NUMERO": 113, "NOMBRE": "GUATEMALA", "DIRECCION": "4773 Guatemala & Borges, Jorge Luis", "BARRIO": "PALERMO", "COMUNA": "COMUNA 14", "EMPLAZAMIE": "CALZADA", "ANCLAJES": 20, "QUEDA_ABIE": 1, "Lat": -34.5857, "Lon": -58.4251 }, "geometry": { "type": "Point", "coordinates": [ -58.4251, -34.5857 ] } },
{ "type": "Feature", "properties": { "ID": 114, "NUMERO": 114, "NOMBRE": "DELLA PAOLERA", "DIRECCION": "297 Della Paolera, Carlos M. & Alem, Leandro N. Av.", "BARRIO": "RETIRO", "COMUNA": "COMUNA 1", "EMPLAZAMIE": "PLAZOLETA", "ANCLAJES": 32, "QUEDA_ABIE": 1, "Lat": -34.5949, "Lon": -58.3724 }, "geometry": { "type": "Point", "coordinates": [ -58.3724, -34.5949 ] } },
{ "type": "Feature", "properties": { "ID": 115, "NUMERO": 115, "NOMBRE": "QUINTANA", "DIRECCION": "600 Quintana, Manuel, Pres. Av. & Haedo, Eduardo V., Pres.", "BARRIO": "RECOLETA", "COMUNA": "COMUNA 2", "EMPLAZAMIE": "VEREDA", "ANCLAJES": 16, "QUEDA_ABIE": 0, "Lat": -34.5878, "Lon": -58.3908 }, "geometry": { "type": "Point", "coordinates": [ -58.3908, -34.5878 ] } },
{ "type": "Feature", "properties": { "ID": 116, "NUMERO": 116, "NOMBRE": "HOSPITAL ALEMAN", "DIRECCION": "Beruti & Ecuador", "BARRIO": "RECOLETA", "COMUNA": "COMUNA 2", "EMPLAZAMIE": "CALZADA", "ANCLAJES": 12, "QUEDA_ABIE": 1, "Lat": -34.5921, "Lon": -58.4028 }, "geometry": { "type": "Point", "coordinates": [ -58.4028, -34.5921 ] } },
{ "type": "Feature", "properties": { "ID": 117, "NUMERO": 117, "NOMBRE": "HUMBERTO 1°", "DIRECCION": "1016 Peru & Calvo, Carlos", "BARRIO": "SAN TELMO", "COMUNA": "COMUNA 1", "EMPLAZAMIE": "CALZADA", "ANCLAJES": 16, "QUEDA_ABIE": 1, "Lat": -34.6199, "Lon": -58.3742 }, "geometry": { "type": "Point", "coordinates": [ -58.3742, -34.6199 ] } },
{ "type": "Feature", "properties": { "ID": 118, "NUMERO": 118, "NOMBRE": "MEXICO", "DIRECCION": "Saavedra & Mexico", "BARRIO": "BALVANERA", "COMUNA": "COMUNA 3", "EMPLAZAMIE": "CALZADA", "ANCLAJES": 20, "QUEDA_ABIE": 1, "Lat": -34.6168, "Lon": -58.4027 }, "geometry": { "type": "Point", "coordinates": [ -58.4027, -34.6168 ] } },
{ "type": "Feature", "properties": { "ID": 119, "NUMERO": 119, "NOMBRE": "EMILIO MITRE", "DIRECCION": "Pacheco De Melo, Jose Andres & Larrea", "BARRIO": "RECOLETA", "COMUNA": "COMUNA 2", "EMPLAZAMIE": "PLAZA CERRADA", "ANCLAJES": 20, "QUEDA_ABIE": 0, "Lat": -34.5885, "Lon": -58.3978 }, "geometry": { "type": "Point", "coordinates": [ -58.3978, -34.5885 ] } },
{ "type": "Feature", "properties": { "ID": 120, "NUMERO": 120, "NOMBRE": "HOSPITAL RAMOS MEJIA", "DIRECCION": "3084 Agrelo & Urquiza", "BARRIO": "BALVANERA", "COMUNA": "COMUNA 3", "EMPLAZAMIE": "CALZADA", "ANCLAJES": 20, "QUEDA_ABIE": 1, "Lat": -34.6175, "Lon": -58.4092 }, "geometry": { "type": "Point", "coordinates": [ -58.4092, -34.6175 ] } },
{ "type": "Feature", "properties": { "ID": 121, "NUMERO": 121, "NOMBRE": "YATAY", "DIRECCION": "925 Yatay& Humahuaca", "BARRIO": "ALMAGRO", "COMUNA": "COMUNA 5", "EMPLAZAMIE": "CALZADA", "ANCLAJES": 20, "QUEDA_ABIE": 1, "Lat": -34.6008, "Lon": -58.4283 }, "geometry": { "type": "Point", "coordinates": [ -58.4283, -34.6008 ] } },
{ "type": "Feature", "properties": { "ID": 122, "NUMERO": 122, "NOMBRE": "COSTA RICA", "DIRECCION": "4090 Costa Rica & Acuña De Figueroa, Francisco", "BARRIO": "PALERMO", "COMUNA": "COMUNA 14", "EMPLAZAMIE": "CALZADA", "ANCLAJES": 20, "QUEDA_ABIE": 1, "Lat": -34.5916, "Lon": -58.4204 }, "geometry": { "type": "Point", "coordinates": [ -58.4204, -34.5916 ] } },
{ "type": "Feature", "properties": { "ID": 505, "NUMERO": 123, "NOMBRE": "ARMENIA", "DIRECCION": "2315 Armenia & Charcas", "BARRIO": "PALERMO", "COMUNA": "COMUNA 14", "EMPLAZAMIE": "CALZADA", "ANCLAJES": 20, "QUEDA_ABIE": 3, "Lat": -34.5853, "Lon": -58.4211 }, "geometry": { "type": "Point", "coordinates": [ -58.4211, -34.5853 ] } },
{ "type": "Feature", "properties": { "ID": 207, "NUMERO": 123, "NOMBRE": "BASUALDO Y RODO", "DIRECCION": "1700 Guardia Nacional", "BARRIO": "MATADEROS", "COMUNA": "COMUNA 9", "EMPLAZAMIE": "CALZADA", "ANCLAJES": 16, "QUEDA_ABIE": 1, "Lat": -34.6523, "Lon": -58.4874 }, "geometry": { "type": "Point", "coordinates": [ -58.4874, -34.6523 ] } },
{ "type": "Feature", "properties": { "ID": 124, "NUMERO": 124, "NOMBRE": "UGARTECHE", "DIRECCION": "3050 Ugarteche & Cabello", "BARRIO": "PALERMO", "COMUNA": "COMUNA 14", "EMPLAZAMIE": "CALZADA", "ANCLAJES": 20, "QUEDA_ABIE": 1, "Lat": -34.5807, "Lon": -58.4125 }, "geometry": { "type": "Point", "coordinates": [ -58.4125, -34.5807 ] } },
{ "type": "Feature", "properties": { "ID": 205, "NUMERO": 125, "NOMBRE": "F. J. SANTAMARIA DE ORO", "DIRECCION": "Fray Justo Santamaria De Oro &Guatemala", "BARRIO": "PALERMO", "COMUNA": "COMUNA 14", "EMPLAZAMIE": "VEREDA", "ANCLAJES": 16, "QUEDA_ABIE": 1, "Lat": -34.5834, "Lon": -58.4281 }, "geometry": { "type": "Point", "coordinates": [ -58.4281, -34.5834 ] } },
{ "type": "Feature", "properties": { "ID": 126, "NUMERO": 126, "NOMBRE": "MINISTERIO DE JUSTICIA Y SEGURIDAD", "DIRECCION": "Regimiento De Patricios Av. & Araoz De Lamadrid, Gregorio, Gral.", "BARRIO": "BOCA", "COMUNA": "COMUNA 4", "EMPLAZAMIE": "VEREDA/dentro del ministerio", "ANCLAJES": 16, "QUEDA_ABIE": 1, "Lat": -34.6401, "Lon": -58.3693 }, "geometry": { "type": "Point", "coordinates": [ -58.3693, -34.6401 ] } },
{ "type": "Feature", "properties": { "ID": 417, "NUMERO": 127, "NOMBRE": "PLAZA LEONARDO N. ALEM", "DIRECCION": "Cochrane 2407", "BARRIO": "VILLA PUEYRREDON", "COMUNA": "COMUNA 12", "EMPLAZAMIE": "VEREDA", "ANCLAJES": 20, "QUEDA_ABIE": 1, "Lat": -34.5763, "Lon": -58.5025 }, "geometry": { "type": "Point", "coordinates": [ -58.5025, -34.5763 ] } },
{ "type": "Feature", "properties": { "ID": 127, "NUMERO": 127, "NOMBRE": "SANTOS DUMONT Y OTERO", "DIRECCION": "4392 Dumont, Santos & Otero", "BARRIO": "CHACARITA", "COMUNA": "COMUNA 15", "EMPLAZAMIE": "CALZADA", "ANCLAJES": 16, "QUEDA_ABIE": 3, "Lat": -34.5923, "Lon": -58.4531 }, "geometry": { "type": "Point", "coordinates": [ -58.4531, -34.5923 ] } },
{ "type": "Feature", "properties": { "ID": 128, "NUMERO": 128, "NOMBRE": "PARQUE DEL BAJO", "DIRECCION": "Madero, Eduardo Av. & Peron, Juan Domingo, Tte. General", "BARRIO": "SAN NICOLAS", "COMUNA": "COMUNA 1", "EMPLAZAMIE": "PLAZA ABIERTA", "ANCLAJES": 20, "QUEDA_ABIE": 1, "Lat": -34.6052, "Lon": -58.368 }, "geometry": { "type": "Point", "coordinates": [ -58.368, -34.6052 ] } },
{ "type": "Feature", "properties": { "ID": 212, "NUMERO": 129, "NOMBRE": "VELASCO", "DIRECCION": "285 Ramirez De Velasco, Juan & Alvarez, Julian", "BARRIO": "VILLA CRESPO", "COMUNA": "COMUNA 15", "EMPLAZAMIE": "CALZADA", "ANCLAJES": 16, "QUEDA_ABIE": 1, "Lat": -34.6002, "Lon": -58.4349 }, "geometry": { "type": "Point", "coordinates": [ -58.4349, -34.6002 ] } },
{ "type": "Feature", "properties": { "ID": 130, "NUMERO": 130, "NOMBRE": "RETIRO II", "DIRECCION": "Ramos Mejia, Jose Maria, Dr. Av. & Del Libertador Av.", "BARRIO": "RETIRO", "COMUNA": "COMUNA 1", "EMPLAZAMIE": "PLAZA ABIERTA", "ANCLAJES": 40, "QUEDA_ABIE": 1, "Lat": -34.5927, "Lon": -58.375 }, "geometry": { "type": "Point", "coordinates": [ -58.375, -34.5927 ] } },
{ "type": "Feature", "properties": { "ID": 131, "NUMERO": 131, "NOMBRE": "HOSPITAL DE CLINICAS", "DIRECCION": "Uriburu Jose E., Pres. & Paraguay", "BARRIO": "RECOLETA", "COMUNA": "COMUNA 2", "EMPLAZAMIE": "VEREDA", "ANCLAJES": 16, "QUEDA_ABIE": 1, "Lat": -34.5983, "Lon": -58.399 }, "geometry": { "type": "Point", "coordinates": [ -58.399, -34.5983 ] } },
{ "type": "Feature", "properties": { "ID": 132, "NUMERO": 132, "NOMBRE": "CORRIENTES", "DIRECCION": "Reconquista & Corrientes Av.", "BARRIO": "SAN NICOLAS", "COMUNA": "COMUNA 1", "EMPLAZAMIE": "PLAZOLETA", "ANCLAJES": 12, "QUEDA_ABIE": 1, "Lat": -34.6031, "Lon": -58.3725 }, "geometry": { "type": "Point", "coordinates": [ -58.3725, -34.6031 ] } },
{ "type": "Feature", "properties": { "ID": 460, "NUMERO": 133, "NOMBRE": "BEIRO Y SEGUROLA", "DIRECCION": "Segurola 3194", "BARRIO": "VILLA DEVOTO", "COMUNA": "COMUNA 11", "EMPLAZAMIE": "CALZADA", "ANCLAJES": 16, "QUEDA_ABIE": 1, "Lat": -34.6075, "Lon": -58.5119 }, "geometry": { "type": "Point", "coordinates": [ -58.5119, -34.6075 ] } },
{ "type": "Feature", "properties": { "ID": 224, "NUMERO": 133, "NOMBRE": "NICARAGUA", "DIRECCION": "Nicaragua & Bonpland", "BARRIO": "PALERMO", "COMUNA": "COMUNA 14", "EMPLAZAMIE": "CALZADA", "ANCLAJES": 20, "QUEDA_ABIE": 3, "Lat": -34.5809, "Lon": -58.4345 }, "geometry": { "type": "Point", "coordinates": [ -58.4345, -34.5809 ] } },
{ "type": "Feature", "properties": { "ID": 506, "NUMERO": 134, "NOMBRE": "DON BOSCO", "DIRECCION": "3490 Don Bosco & Liniers Virrey", "BARRIO": "ALMAGRO", "COMUNA": "COMUNA 5", "EMPLAZAMIE": "CALZADA", "ANCLAJES": 20, "QUEDA_ABIE": 3, "Lat": -34.6119, "Lon": -58.4153 }, "geometry": { "type": "Point", "coordinates": [ -58.4153, -34.6119 ] } },
{ "type": "Feature", "properties": { "ID": 134, "NUMERO": 134, "NOMBRE": "SOLDADO DE LA FRONTERA", "DIRECCION": "4999 Soldado de la Frontera", "BARRIO": "VILLA LUGANO", "COMUNA": "COMUNA 8", "EMPLAZAMIE": "PLAZOLETA", "ANCLAJES": 12, "QUEDA_ABIE": 1, "Lat": -34.6832, "Lon": -58.466 }, "geometry": { "type": "Point", "coordinates": [ -58.466, -34.6832 ] } },
{ "type": "Feature", "properties": { "ID": 135, "NUMERO": 135, "NOMBRE": "MARCELO T. DE ALVEAR", "DIRECCION": "902 Esmeralda & Paraguay", "BARRIO": "SAN NICOLAS", "COMUNA": "COMUNA 1", "EMPLAZAMIE": "VEREDA", "ANCLAJES": 20, "QUEDA_ABIE": 1, "Lat": -34.5975, "Lon": -58.3784 }, "geometry": { "type": "Point", "coordinates": [ -58.3784, -34.5975 ] } },
{ "type": "Feature", "properties": { "ID": 213, "NUMERO": 136, "NOMBRE": "ACEVEDO", "DIRECCION": "220 Acevedo", "BARRIO": "VILLA CRESPO", "COMUNA": "COMUNA 15", "EMPLAZAMIE": "CALZADA", "ANCLAJES": 20, "QUEDA_ABIE": 1, "Lat": -34.5998, "Lon": -58.4428 }, "geometry": { "type": "Point", "coordinates": [ -58.4428, -34.5998 ] } },
{ "type": "Feature", "properties": { "ID": 137, "NUMERO": 137, "NOMBRE": "AZOPARDO Y CHILE", "DIRECCION": "700 Azopardo & Chile Av.", "BARRIO": "MONSERRAT", "COMUNA": "COMUNA 1", "EMPLAZAMIE": "CALZADA", "ANCLAJES": 24, "QUEDA_ABIE": 1, "Lat": -34.6157, "Lon": -58.3676 }, "geometry": { "type": "Point", "coordinates": [ -58.3676, -34.6157 ] } },
{ "type": "Feature", "properties": { "ID": 138, "NUMERO": 138, "NOMBRE": "HOSPITAL BRITANICO", "DIRECCION": "153 Perdriel", "BARRIO": "BARRACAS", "COMUNA": "COMUNA 4", "EMPLAZAMIE": "CALZADA", "ANCLAJES": 12, "QUEDA_ABIE": 1, "Lat": -34.6354, "Lon": -58.3876 }, "geometry": { "type": "Point", "coordinates": [ -58.3876, -34.6354 ] } },
{ "type": "Feature", "properties": { "ID": 226, "NUMERO": 139, "NOMBRE": "VIRREY LINIERS", "DIRECCION": "3408 Salcedo & Liniers Virrey", "BARRIO": "BOEDO", "COMUNA": "COMUNA 5", "EMPLAZAMIE": "CALZADA", "ANCLAJES": 20, "QUEDA_ABIE": 0, "Lat": -34.6334, "Lon": -58.4132 }, "geometry": { "type": "Point", "coordinates": [ -58.4132, -34.6334 ] } },
{ "type": "Feature", "properties": { "ID": 219, "NUMERO": 140, "NOMBRE": "LAS CASAS", "DIRECCION": "Metán 3656 EX 3587 Las Casas", "BARRIO": "BOEDO", "COMUNA": "COMUNA 5", "EMPLAZAMIE": "CALZADA", "ANCLAJES": 16, "QUEDA_ABIE": 1, "Lat": -34.6359, "Lon": -58.4157 }, "geometry": { "type": "Point", "coordinates": [ -58.4157, -34.6359 ] } },
{ "type": "Feature", "properties": { "ID": 141, "NUMERO": 141, "NOMBRE": "SOLIS Y ALSINA", "DIRECCION": "225 Solis & Alsina, Adolfo", "BARRIO": "MONSERRAT", "COMUNA": "COMUNA 1", "EMPLAZAMIE": "CALZADA", "ANCLAJES": 20, "QUEDA_ABIE": 0, "Lat": -34.6118, "Lon": -58.3904 }, "geometry": { "type": "Point", "coordinates": [ -58.3904, -34.6118 ] } },
{ "type": "Feature", "properties": { "ID": 214, "NUMERO": 142, "NOMBRE": "ARMENIA Y GORRITI", "DIRECCION": "1525 Armenia & Gorriti", "BARRIO": "PALERMO", "COMUNA": "COMUNA 14", "EMPLAZAMIE": "CALZADA", "ANCLAJES": 16, "QUEDA_ABIE": 0, "Lat": -34.5907, "Lon": -58.4289 }, "geometry": { "type": "Point", "coordinates": [ -58.4289, -34.5907 ] } },
{ "type": "Feature", "properties": { "ID": 143, "NUMERO": 143, "NOMBRE": "BILLINGHURST Y VALENTIN GOMEZ", "DIRECCION": "455 Billinghurst & Gomez, Valentin", "BARRIO": "ALMAGRO", "COMUNA": "COMUNA 5", "EMPLAZAMIE": "CALZADA", "ANCLAJES": 20, "QUEDA_ABIE": 0, "Lat": -34.6046, "Lon": -58.4158 }, "geometry": { "type": "Point", "coordinates": [ -58.4158, -34.6046 ] } },
{ "type": "Feature", "properties": { "ID": 144, "NUMERO": 144, "NOMBRE": "PUEYRREDON", "DIRECCION": "684 Boulogne Sur Mer & Tucuman", "BARRIO": "BALVANERA", "COMUNA": "COMUNA 3", "EMPLAZAMIE": "CALZADA", "ANCLAJES": 20, "QUEDA_ABIE": 1, "Lat": -34.6021, "Lon": -58.4061 }, "geometry": { "type": "Point", "coordinates": [ -58.4061, -34.6021 ] } },
{ "type": "Feature", "properties": { "ID": 208, "NUMERO": 145, "NOMBRE": "RAVIGNANI", "DIRECCION": "1900 Ravignani, Emilio, Dr. & Costa Rica", "BARRIO": "PALERMO", "COMUNA": "COMUNA 14", "EMPLAZAMIE": "CALZADA", "ANCLAJES": 20, "QUEDA_ABIE": 1, "Lat": -34.5803, "Lon": -58.4378 }, "geometry": { "type": "Point", "coordinates": [ -58.4378, -34.5803 ] } },
{ "type": "Feature", "properties": { "ID": 146, "NUMERO": 146, "NOMBRE": "HOSPITAL FRANCES", "DIRECCION": "3024 Calvo, Carlos & La Rioja", "BARRIO": "SAN CRISTOBAL", "COMUNA": "COMUNA 3", "EMPLAZAMIE": "CALZADA", "ANCLAJES": 20, "QUEDA_ABIE": 1, "Lat": -34.6222, "Lon": -58.4077 }, "geometry": { "type": "Point", "coordinates": [ -58.4077, -34.6222 ] } },
{ "type": "Feature", "properties": { "ID": 175, "NUMERO": 147, "NOMBRE": "CONSTITUCION", "DIRECCION": "Garay, Juan De Av. 1150", "BARRIO": "CONSTITUCION", "COMUNA": "COMUNA 1", "EMPLAZAMIE": "PLAZOLETA", "ANCLAJES": 48, "QUEDA_ABIE": 1, "Lat": -34.6261, "Lon": -58.3793 }, "geometry": { "type": "Point", "coordinates": [ -58.3793, -34.6261 ] } },
{ "type": "Feature", "properties": { "ID": 330, "NUMERO": 148, "NOMBRE": "PATERNAL", "DIRECCION": "Punta Arenas 1798", "BARRIO": "PATERNAL", "COMUNA": "COMUNA 15", "EMPLAZAMIE": "CALZADA", "ANCLAJES": 16, "QUEDA_ABIE": 1, "Lat": -34.6007, "Lon": -58.47 }, "geometry": { "type": "Point", "coordinates": [ -58.47, -34.6007 ] } },
{ "type": "Feature", "properties": { "ID": 149, "NUMERO": 149, "NOMBRE": "LIMA", "DIRECCION": "Mexico & Lima", "BARRIO": "MONSERRAT", "COMUNA": "COMUNA 1", "EMPLAZAMIE": "PLAZOLETA", "ANCLAJES": 16, "QUEDA_ABIE": 1, "Lat": -34.6153, "Lon": -58.3816 }, "geometry": { "type": "Point", "coordinates": [ -58.3816, -34.6153 ] } },
{ "type": "Feature", "properties": { "ID": 150, "NUMERO": 150, "NOMBRE": "RODRIGO BUENO", "DIRECCION": "2200 España Av entre Rodrigo Bueno I & Rodrigo Bueno II", "BARRIO": "PUERTO MADERO", "COMUNA": "COMUNA 1", "EMPLAZAMIE": "VEREDA", "ANCLAJES": 30, "QUEDA_ABIE": 1, "Lat": -34.6192, "Lon": -58.3556 }, "geometry": { "type": "Point", "coordinates": [ -58.3556, -34.6192 ] } },
{ "type": "Feature", "properties": { "ID": 512, "NUMERO": 150, "NOMBRE": "VERA PEÑALOZA", "DIRECCION": "Vera Peñaloza, Rosario & Cossettini, Olga", "BARRIO": "PUERTO MADERO", "COMUNA": "COMUNA 1", "EMPLAZAMIE": "VEREDA", "ANCLAJES": 30, "QUEDA_ABIE": 3, "Lat": -34.6175, "Lon": -58.3627 }, "geometry": { "type": "Point", "coordinates": [ -58.3627, -34.6175 ] } },
{ "type": "Feature", "properties": { "ID": 151, "NUMERO": 151, "NOMBRE": "AIME PAINE", "DIRECCION": "Villaflor, Azucena & Paine, Aime", "BARRIO": "PUERTO MADERO", "COMUNA": "COMUNA 1", "EMPLAZAMIE": "PLAZOLETA", "ANCLAJES": 24, "QUEDA_ABIE": 1, "Lat": -34.612, "Lon": -58.3615 }, "geometry": { "type": "Point", "coordinates": [ -58.3615, -34.612 ] } },
{ "type": "Feature", "properties": { "ID": 152, "NUMERO": 152, "NOMBRE": "JULIETA LANTERI", "DIRECCION": "Vera Peñaloza, Rosario & Lanteri Julieta", "BARRIO": "PUERTO MADERO", "COMUNA": "COMUNA 1", "EMPLAZAMIE": "PLAZA ABIERTA", "ANCLAJES": 28, "QUEDA_ABIE": 1, "Lat": -34.6181, "Lon": -58.36 }, "geometry": { "type": "Point", "coordinates": [ -58.36, -34.6181 ] } },
{ "type": "Feature", "properties": { "ID": 153, "NUMERO": 153, "NOMBRE": "JUAN MANUEL BLANES", "DIRECCION": "383 Blanes, Juan Manuel", "BARRIO": "BOCA", "COMUNA": "COMUNA 4", "EMPLAZAMIE": "CALZADA", "ANCLAJES": 16, "QUEDA_ABIE": 1, "Lat": -34.6307, "Lon": -58.3621 }, "geometry": { "type": "Point", "coordinates": [ -58.3621, -34.6307 ] } },
{ "type": "Feature", "properties": { "ID": 154, "NUMERO": 154, "NOMBRE": "GALLO", "DIRECCION": "789 Gallo & Tucuman", "BARRIO": "ALMAGRO", "COMUNA": "COMUNA 5", "EMPLAZAMIE": "CALZADA", "ANCLAJES": 20, "QUEDA_ABIE": 0, "Lat": -34.6005, "Lon": -58.4123 }, "geometry": { "type": "Point", "coordinates": [ -58.4123, -34.6005 ] } },
{ "type": "Feature", "properties": { "ID": 155, "NUMERO": 155, "NOMBRE": "PARQUE JOSE EVARISTO URIBURU", "DIRECCION": "Avenida Almafuerte 6", "BARRIO": "NUEVA POMPEYA", "COMUNA": "COMUNA 4", "EMPLAZAMIE": "PLAZA ABIERTA", "ANCLAJES": 20, "QUEDA_ABIE": 1, "Lat": -34.6381, "Lon": -58.4112 }, "geometry": { "type": "Point", "coordinates": [ -58.4112, -34.6381 ] } },
{ "type": "Feature", "properties": { "ID": 156, "NUMERO": 156, "NOMBRE": "PLAZA ALEMANIA", "DIRECCION": "2939 Cavia & Del Libertador Av.", "BARRIO": "PALERMO", "COMUNA": "COMUNA 14", "EMPLAZAMIE": "CALZADA", "ANCLAJES": 20, "QUEDA_ABIE": 1, "Lat": -34.5778, "Lon": -58.4073 }, "geometry": { "type": "Point", "coordinates": [ -58.4073, -34.5778 ] } },
{ "type": "Feature", "properties": { "ID": 221, "NUMERO": 157, "NOMBRE": "SENILLOSA Y ZUVIRIA", "DIRECCION": "989 Senillosa & Zuviria", "BARRIO": "PARQUE CHACABUCO", "COMUNA": "COMUNA 7", "EMPLAZAMIE": "CALZADA", "ANCLAJES": 20, "QUEDA_ABIE": 0, "Lat": -34.6283, "Lon": -58.428 }, "geometry": { "type": "Point", "coordinates": [ -58.428, -34.6283 ] } },
{ "type": "Feature", "properties": { "ID": 158, "NUMERO": 158, "NOMBRE": "VILLARROEL", "DIRECCION": "1321 Villarroel & Humboldt", "BARRIO": "CHACARITA", "COMUNA": "COMUNA 15", "EMPLAZAMIE": "CALZADA", "ANCLAJES": 20, "QUEDA_ABIE": 1, "Lat": -34.5925, "Lon": -58.4452 }, "geometry": { "type": "Point", "coordinates": [ -58.4452, -34.5925 ] } },
{ "type": "Feature", "properties": { "ID": 206, "NUMERO": 159, "NOMBRE": "FITZ ROY Y GORRITI", "DIRECCION": "Fitz Roy & Gorriti", "BARRIO": "PALERMO", "COMUNA": "COMUNA 14", "EMPLAZAMIE": "CALZADA", "ANCLAJES": 16, "QUEDA_ABIE": 1, "Lat": -34.5849, "Lon": -58.4372 }, "geometry": { "type": "Point", "coordinates": [ -58.4372, -34.5849 ] } },
{ "type": "Feature", "properties": { "ID": 222, "NUMERO": 160, "NOMBRE": "GODOY CRUZ Y LIBERTADOR", "DIRECCION": "3279 Godoy Cruz & Del Libertador Av.", "BARRIO": "PALERMO", "COMUNA": "COMUNA 14", "EMPLAZAMIE": "CALZADA", "ANCLAJES": 20, "QUEDA_ABIE": 1, "Lat": -34.5728, "Lon": -58.4207 }, "geometry": { "type": "Point", "coordinates": [ -58.4207, -34.5728 ] } },
{ "type": "Feature", "properties": { "ID": 161, "NUMERO": 161, "NOMBRE": "HUMAHUACA", "DIRECCION": "3912 Humahuaca & Salguero, Jeronimo", "BARRIO": "ALMAGRO", "COMUNA": "COMUNA 5", "EMPLAZAMIE": "CALZADA", "ANCLAJES": 20, "QUEDA_ABIE": 1, "Lat": -34.6021, "Lon": -58.4195 }, "geometry": { "type": "Point", "coordinates": [ -58.4195, -34.6021 ] } },
{ "type": "Feature", "properties": { "ID": 162, "NUMERO": 162, "NOMBRE": "LARREA Y BARTOLOME MITRE", "DIRECCION": "80 Larrea & Mitre, Bartolome", "BARRIO": "BALVANERA", "COMUNA": "COMUNA 3", "EMPLAZAMIE": "VEREDA", "ANCLAJES": 20, "QUEDA_ABIE": 1, "Lat": -34.609, "Lon": -58.4019 }, "geometry": { "type": "Point", "coordinates": [ -58.4019, -34.609 ] } },
{ "type": "Feature", "properties": { "ID": 163, "NUMERO": 163, "NOMBRE": "ONCE II", "DIRECCION": "Mitre, Bartolome & Puerredon Av.", "BARRIO": "BALVANERA", "COMUNA": "COMUNA 3", "EMPLAZAMIE": "PLAZA ABIERTA", "ANCLAJES": 30, "QUEDA_ABIE": 1, "Lat": -34.6088, "Lon": -58.4061 }, "geometry": { "type": "Point", "coordinates": [ -58.4061, -34.6088 ] } },
{ "type": "Feature", "properties": { "ID": 164, "NUMERO": 164, "NOMBRE": "FACULTAD DE INGENIERIA", "DIRECCION": "Av. Paseo Colón 823", "BARRIO": "SAN TELMO", "COMUNA": "COMUNA 1", "EMPLAZAMIE": "VEREDA", "ANCLAJES": 20, "QUEDA_ABIE": 1, "Lat": -34.6173, "Lon": -58.3669 }, "geometry": { "type": "Point", "coordinates": [ -58.3669, -34.6173 ] } },
{ "type": "Feature", "properties": { "ID": 165, "NUMERO": 165, "NOMBRE": "PLAZA MONSEÑOR MIGUEL DE ANDREA", "DIRECCION": "Anchorena, Tomas Manuel De, Dr. & Cabrera, Jose A.", "BARRIO": "RECOLETA", "COMUNA": "COMUNA 2", "EMPLAZAMIE": "VEREDA", "ANCLAJES": 12, "QUEDA_ABIE": 1, "Lat": -34.597, "Lon": -58.4076 }, "geometry": { "type": "Point", "coordinates": [ -58.4076, -34.597 ] } },
{ "type": "Feature", "properties": { "ID": 166, "NUMERO": 166, "NOMBRE": "CEMENTERIO DE LA RECOLETA", "DIRECCION": "2000 Lopez, Vicente & Junin", "BARRIO": "RECOLETA", "COMUNA": "COMUNA 2", "EMPLAZAMIE": "PLAZOLETA", "ANCLAJES": 20, "QUEDA_ABIE": 1, "Lat": -34.5886, "Lon": -58.3942 }, "geometry": { "type": "Point", "coordinates": [ -58.3942, -34.5886 ] } },
{ "type": "Feature", "properties": { "ID": 204, "NUMERO": 167, "NOMBRE": "HIPOLITO YRIGOYEN", "DIRECCION": "4300 Yrigoyen, Hipolito Av.", "BARRIO": "ALMAGRO", "COMUNA": "COMUNA 5", "EMPLAZAMIE": "VEREDA", "ANCLAJES": 24, "QUEDA_ABIE": 1, "Lat": -34.615, "Lon": -58.4273 }, "geometry": { "type": "Point", "coordinates": [ -58.4273, -34.615 ] } },
{ "type": "Feature", "properties": { "ID": 168, "NUMERO": 168, "NOMBRE": "ESTADOS UNIDOS", "DIRECCION": "Estados Unidos & Lima", "BARRIO": "CONSTITUCION", "COMUNA": "COMUNA 1", "EMPLAZAMIE": "PLAZOLETA", "ANCLAJES": 16, "QUEDA_ABIE": 1, "Lat": -34.6185, "Lon": -58.3815 }, "geometry": { "type": "Point", "coordinates": [ -58.3815, -34.6185 ] } },
{ "type": "Feature", "properties": { "ID": 169, "NUMERO": 169, "NOMBRE": "FACULTAD DE PSICOLOGIA", "DIRECCION": "Yrigoyen, Hipolito & 24 De Noviembre", "BARRIO": "BALVANERA", "COMUNA": "COMUNA 3", "EMPLAZAMIE": "PLAZA CERRADA", "ANCLAJES": 12, "QUEDA_ABIE": 1, "Lat": -34.6118, "Lon": -58.4117 }, "geometry": { "type": "Point", "coordinates": [ -58.4117, -34.6118 ] } },
{ "type": "Feature", "properties": { "ID": 170, "NUMERO": 170, "NOMBRE": "SAN LUIS Y ECUADOR", "DIRECCION": "2862 San Luis & Ecuador", "BARRIO": "BALVANERA", "COMUNA": "COMUNA 3", "EMPLAZAMIE": "CALZADA", "ANCLAJES": 20, "QUEDA_ABIE": 0, "Lat": -34.5997, "Lon": -58.406 }, "geometry": { "type": "Point", "coordinates": [ -58.406, -34.5997 ] } },
{ "type": "Feature", "properties": { "ID": 171, "NUMERO": 171, "NOMBRE": "PASTEUR", "DIRECCION": "519 Pasteur & Lavalle", "BARRIO": "BALVANERA", "COMUNA": "COMUNA 3", "EMPLAZAMIE": "CALZADA", "ANCLAJES": 20, "QUEDA_ABIE": 1, "Lat": -34.603, "Lon": -58.3996 }, "geometry": { "type": "Point", "coordinates": [ -58.3996, -34.603 ] } },
{ "type": "Feature", "properties": { "ID": 172, "NUMERO": 172, "NOMBRE": "BRASIL", "DIRECCION": "Brasil & Defensa", "BARRIO": "SAN TELMO", "COMUNA": "COMUNA 1", "EMPLAZAMIE": "PLAZA ABIERTA", "ANCLAJES": 16, "QUEDA_ABIE": 1, "Lat": -34.6254, "Lon": -58.3711 }, "geometry": { "type": "Point", "coordinates": [ -58.3711, -34.6254 ] } },
{ "type": "Feature", "properties": { "ID": 173, "NUMERO": 173, "NOMBRE": "PLAZA CECILIA GRIERSON", "DIRECCION": "632 San Juan Av. & Chacabuco", "BARRIO": "SAN TELMO", "COMUNA": "COMUNA 1", "EMPLAZAMIE": "PLAZA CERRADA", "ANCLAJES": 16, "QUEDA_ABIE": 0, "Lat": -34.6221, "Lon": -58.375 }, "geometry": { "type": "Point", "coordinates": [ -58.375, -34.6221 ] } },
{ "type": "Feature", "properties": { "ID": 174, "NUMERO": 174, "NOMBRE": "MINISTERIO DE EDUCACION", "DIRECCION": "Alvear, Marcelo T. De & Rodriguez Peña", "BARRIO": "RECOLETA", "COMUNA": "COMUNA 2", "EMPLAZAMIE": "PLAZOLETA", "ANCLAJES": 20, "QUEDA_ABIE": 1, "Lat": -34.5972, "Lon": -58.3918 }, "geometry": { "type": "Point", "coordinates": [ -58.3918, -34.5972 ] } },
{ "type": "Feature", "properties": { "ID": 201, "NUMERO": 175, "NOMBRE": "ESMERALDA Y CORRIENTES", "DIRECCION": "Esmeralda & Corrientes Av.", "BARRIO": "SAN NICOLAS", "COMUNA": "COMUNA 1", "EMPLAZAMIE": "VEREDA", "ANCLAJES": 7, "QUEDA_ABIE": 0, "Lat": -34.6035, "Lon": -58.3781 }, "geometry": { "type": "Point", "coordinates": [ -58.3781, -34.6035 ] } },
{ "type": "Feature", "properties": { "ID": 176, "NUMERO": 176, "NOMBRE": "PINZON Y MARTIN RODRIGUEZ", "DIRECCION": "469 Pinzon", "BARRIO": "BOCA", "COMUNA": "COMUNA 4", "EMPLAZAMIE": "CALZADA", "ANCLAJES": 9, "QUEDA_ABIE": 3, "Lat": -34.6341, "Lon": -58.3609 }, "geometry": { "type": "Point", "coordinates": [ -58.3609, -34.6341 ] } },
{ "type": "Feature", "properties": { "ID": 454, "NUMERO": 178, "NOMBRE": "PLAZA DERECHOS DEL HOMBRE", "DIRECCION": "Cortina 551", "BARRIO": "VILLA LURO", "COMUNA": "COMUNA 10", "EMPLAZAMIE": "VEREDA", "ANCLAJES": 12, "QUEDA_ABIE": 1, "Lat": -34.634, "Lon": -58.5069 }, "geometry": { "type": "Point", "coordinates": [ -58.5069, -34.634 ] } },
{ "type": "Feature", "properties": { "ID": 177, "NUMERO": 177, "NOMBRE": "PLANETARIO", "DIRECCION": "Av. Roldan, Belisario y Av. Casares", "BARRIO": "PALERMO", "COMUNA": "COMUNA 14", "EMPLAZAMIE": "VEREDA", "ANCLAJES": 7, "QUEDA_ABIE": 1, "Lat": -34.5682, "Lon": -58.4123 }, "geometry": { "type": "Point", "coordinates": [ -58.4123, -34.5682 ] } },
{ "type": "Feature", "properties": { "ID": 223, "NUMERO": 178, "NOMBRE": "JOSE MARMOL", "DIRECCION": "803 Marmol, Jose & Estados Unidos", "BARRIO": "BOEDO", "COMUNA": "COMUNA 5", "EMPLAZAMIE": "CALZADA", "ANCLAJES": 16, "QUEDA_ABIE": 1, "Lat": -34.6234, "Lon": -58.4249 }, "geometry": { "type": "Point", "coordinates": [ -58.4249, -34.6234 ] } },
{ "type": "Feature", "properties": { "ID": 179, "NUMERO": 179, "NOMBRE": "CASA SAN", "DIRECCION": "Olavarria y Garibaldi", "BARRIO": "BOCA", "COMUNA": "COMUNA 4", "EMPLAZAMIE": "CALZADA", "ANCLAJES": 16, "QUEDA_ABIE": 1, "Lat": -34.6385, "Lon": -58.3643 }, "geometry": { "type": "Point", "coordinates": [ -58.3643, -34.6385 ] } },
{ "type": "Feature", "properties": { "ID": 501, "NUMERO": 179, "NOMBRE": "LA BOCA", "DIRECCION": "1819 Don Pedro De Mendoza Av. & Palos EX ID 179", "BARRIO": "BOCA", "COMUNA": "COMUNA 4", "EMPLAZAMIE": "CALZADA", "ANCLAJES": 16, "QUEDA_ABIE": 3, "Lat": -34.639, "Lon": -58.3606 }, "geometry": { "type": "Point", "coordinates": [ -58.3606, -34.639 ] } },
{ "type": "Feature", "properties": { "ID": 180, "NUMERO": 180, "NOMBRE": "CASTRO Y MEXICO", "DIRECCION": "680 Castro & Mexico", "BARRIO": "ALMAGRO", "COMUNA": "COMUNA 5", "EMPLAZAMIE": "CALZADA", "ANCLAJES": 20, "QUEDA_ABIE": 0, "Lat": -34.6198, "Lon": -58.4205 }, "geometry": { "type": "Point", "coordinates": [ -58.4205, -34.6198 ] } },
{ "type": "Feature", "properties": { "ID": 181, "NUMERO": 181, "NOMBRE": "BILLINGHURST Y MANSILLA", "DIRECCION": "1533 Billinghurst & Mansilla, Lucio Norberto, General", "BARRIO": "RECOLETA", "COMUNA": "COMUNA 2", "EMPLAZAMIE": "CALZADA", "ANCLAJES": 20, "QUEDA_ABIE": 1, "Lat": -34.5926, "Lon": -58.412 }, "geometry": { "type": "Point", "coordinates": [ -58.412, -34.5926 ] } },
{ "type": "Feature", "properties": { "ID": 182, "NUMERO": 182, "NOMBRE": "RAVIGNANI Y GUATEMALA", "DIRECCION": "2185 Ravignani, Emilio, Dr. & Guatemala", "BARRIO": "PALERMO", "COMUNA": "COMUNA 14", "EMPLAZAMIE": "CALZADA", "ANCLAJES": 20, "QUEDA_ABIE": 1, "Lat": -34.5781, "Lon": -58.4351 }, "geometry": { "type": "Point", "coordinates": [ -58.4351, -34.5781 ] } },
{ "type": "Feature", "properties": { "ID": 183, "NUMERO": 183, "NOMBRE": "VIRREY CEVALLOS", "DIRECCION": "1652 Mexico", "BARRIO": "MONSERRAT", "COMUNA": "COMUNA 1", "EMPLAZAMIE": "CALZADA", "ANCLAJES": 20, "QUEDA_ABIE": 1, "Lat": -34.6156, "Lon": -58.3897 }, "geometry": { "type": "Point", "coordinates": [ -58.3897, -34.6156 ] } },
{ "type": "Feature", "properties": { "ID": 184, "NUMERO": 184, "NOMBRE": "PEDRO ECHAGUE", "DIRECCION": "1878 Echague, Pedro & Combate De Los Pozos", "BARRIO": "PARQUE PATRICIOS", "COMUNA": "COMUNA 4", "EMPLAZAMIE": "CALZADA", "ANCLAJES": 20, "QUEDA_ABIE": 1, "Lat": -34.6307, "Lon": -58.3912 }, "geometry": { "type": "Point", "coordinates": [ -58.3912, -34.6307 ] } },
{ "type": "Feature", "properties": { "ID": 185, "NUMERO": 185, "NOMBRE": "AV. PAVON Y 33 ORIENTALES", "DIRECCION": "1400 Treinta Y Tres Orientales & Pavon Av.", "BARRIO": "BOEDO", "COMUNA": "COMUNA 5", "EMPLAZAMIE": "CALZADA", "ANCLAJES": 20, "QUEDA_ABIE": 0, "Lat": -34.6308, "Lon": -58.4218 }, "geometry": { "type": "Point", "coordinates": [ -58.4218, -34.6308 ] } },
{ "type": "Feature", "properties": { "ID": 186, "NUMERO": 186, "NOMBRE": "MANZANA 66", "DIRECCION": "2875 Moreno & Catamarca", "BARRIO": "BALVANERA", "COMUNA": "COMUNA 3", "EMPLAZAMIE": "PLAZA ABIERTA", "ANCLAJES": 20, "QUEDA_ABIE": 1, "Lat": -34.6135, "Lon": -58.4061 }, "geometry": { "type": "Point", "coordinates": [ -58.4061, -34.6135 ] } },
{ "type": "Feature", "properties": { "ID": 432, "NUMERO": 187, "NOMBRE": "JOSE MARIA MORENO", "DIRECCION": "141 Jose Maria Moreno", "BARRIO": "CABALLITO", "COMUNA": "COMUNA 6", "EMPLAZAMIE": "VEREDA", "ANCLAJES": 20, "QUEDA_ABIE": 1, "Lat": -34.6202, "Lon": -58.4356 }, "geometry": { "type": "Point", "coordinates": [ -58.4356, -34.6202 ] } },
{ "type": "Feature", "properties": { "ID": 227, "NUMERO": 188, "NOMBRE": "ARANGUREN", "DIRECCION": "1 Aranguren, Juan F., Dr. & Portugal", "BARRIO": "CABALLITO", "COMUNA": "COMUNA 6", "EMPLAZAMIE": "CALZADA", "ANCLAJES": 20, "QUEDA_ABIE": 1, "Lat": -34.6104, "Lon": -58.4328 }, "geometry": { "type": "Point", "coordinates": [ -58.4328, -34.6104 ] } },
{ "type": "Feature", "properties": { "ID": 189, "NUMERO": 189, "NOMBRE": "POSADAS", "DIRECCION": "1350 Posadas & Montevideo", "BARRIO": "RETIRO", "COMUNA": "COMUNA 1", "EMPLAZAMIE": "CALZADA", "ANCLAJES": 20, "QUEDA_ABIE": 1, "Lat": -34.5885, "Lon": -58.3855 }, "geometry": { "type": "Point", "coordinates": [ -58.3855, -34.5885 ] } },
{ "type": "Feature", "properties": { "ID": 190, "NUMERO": 190, "NOMBRE": "JUNCAL", "DIRECCION": "Juncal & Salguero, Jeronimo", "BARRIO": "PALERMO", "COMUNA": "COMUNA 14", "EMPLAZAMIE": "CALZADA", "ANCLAJES": 20, "QUEDA_ABIE": 1, "Lat": -34.5852, "Lon": -58.411 }, "geometry": { "type": "Point", "coordinates": [ -58.411, -34.5852 ] } },
{ "type": "Feature", "properties": { "ID": 191, "NUMERO": 191, "NOMBRE": "RIVADAVIA Y 9 DE JULIO", "DIRECCION": "Pellegrini & Rivadavia Av.", "BARRIO": "SAN NICOLAS", "COMUNA": "COMUNA 1", "EMPLAZAMIE": "PLAZOLETA", "ANCLAJES": 16, "QUEDA_ABIE": 1, "Lat": -34.6084, "Lon": -58.3808 }, "geometry": { "type": "Point", "coordinates": [ -58.3808, -34.6084 ] } },
{ "type": "Feature", "properties": { "ID": 192, "NUMERO": 192, "NOMBRE": "TALCAHUANO", "DIRECCION": "990 Talcahuano & Marcelo T. Alvear", "BARRIO": "RETIRO", "COMUNA": "COMUNA 1", "EMPLAZAMIE": "CALZADA", "ANCLAJES": 20, "QUEDA_ABIE": 0, "Lat": -34.5972, "Lon": -58.3857 }, "geometry": { "type": "Point", "coordinates": [ -58.3857, -34.5972 ] } },
{ "type": "Feature", "properties": { "ID": 193, "NUMERO": 193, "NOMBRE": "ARENALES Y AGUERO", "DIRECCION": "2882 Arenales & Aguero", "BARRIO": "RECOLETA", "COMUNA": "COMUNA 2", "EMPLAZAMIE": "CALZADA", "ANCLAJES": 20, "QUEDA_ABIE": 1, "Lat": -34.5909, "Lon": -58.4061 }, "geometry": { "type": "Point", "coordinates": [ -58.4061, -34.5909 ] } },
{ "type": "Feature", "properties": { "ID": 194, "NUMERO": 194, "NOMBRE": "PERON Y ACUÑA DE FIGUEROA", "DIRECCION": "3997 Peron, Juan Domingo, Tte. General", "BARRIO": "ALMAGRO", "COMUNA": "COMUNA 5", "EMPLAZAMIE": "CALZADA", "ANCLAJES": 16, "QUEDA_ABIE": 1, "Lat": -34.606, "Lon": -58.4227 }, "geometry": { "type": "Point", "coordinates": [ -58.4227, -34.606 ] } },
{ "type": "Feature", "properties": { "ID": 211, "NUMERO": 195, "NOMBRE": "PLAZA GARAY", "DIRECCION": "Garay, Juan De Av. &Saenz Peña, Luis, Pres.", "BARRIO": "CONSTITUCION", "COMUNA": "COMUNA 1", "EMPLAZAMIE": "PLAZA ABIERTA", "ANCLAJES": 20, "QUEDA_ABIE": 0, "Lat": -34.6271, "Lon": -58.3872 }, "geometry": { "type": "Point", "coordinates": [ -58.3872, -34.6271 ] } },
{ "type": "Feature", "properties": { "ID": 196, "NUMERO": 196, "NOMBRE": "HOSPITAL ARGERICH", "DIRECCION": "750 Pi Y Margall & Necochea", "BARRIO": "BOCA", "COMUNA": "COMUNA 4", "EMPLAZAMIE": "VEREDA", "ANCLAJES": 20, "QUEDA_ABIE": 1, "Lat": -34.6278, "Lon": -58.3661 }, "geometry": { "type": "Point", "coordinates": [ -58.3661, -34.6278 ] } },
{ "type": "Feature", "properties": { "ID": 197, "NUMERO": 197, "NOMBRE": "PLAZA CIUDAD DE UDINE", "DIRECCION": "Mercedes 1480", "BARRIO": "FLORESTA", "COMUNA": "COMUNA 10", "EMPLAZAMIE": "CALZADA", "ANCLAJES": 20, "QUEDA_ABIE": 1, "Lat": -34.621, "Lon": -58.493 }, "geometry": { "type": "Point", "coordinates": [ -58.493, -34.621 ] } },
{ "type": "Feature", "properties": { "ID": 507, "NUMERO": 197, "NOMBRE": "QUINTINO BOCAYUVA", "DIRECCION": "Bocayuva, Quintino & Don Bosco", "BARRIO": "ALMAGRO", "COMUNA": "COMUNA 5", "EMPLAZAMIE": "CALZADA", "ANCLAJES": 20, "QUEDA_ABIE": 3, "Lat": -34.6136, "Lon": -58.4255 }, "geometry": { "type": "Point", "coordinates": [ -58.4255, -34.6136 ] } },
{ "type": "Feature", "properties": { "ID": 217, "NUMERO": 198, "NOMBRE": "HOSPITAL SARDA", "DIRECCION": "Castillo, Catulo & Dean Funes", "BARRIO": "PARQUE PATRICIOS", "COMUNA": "COMUNA 4", "EMPLAZAMIE": "CALZADA", "ANCLAJES": 16, "QUEDA_ABIE": 0, "Lat": -34.6344, "Lon": -58.4043 }, "geometry": { "type": "Point", "coordinates": [ -58.4043, -34.6344 ] } },
{ "type": "Feature", "properties": { "ID": 199, "NUMERO": 199, "NOMBRE": "ESTADOS UNIDOS Y BOEDO", "DIRECCION": "3568 Estados Unidos & Boedo Av.", "BARRIO": "BOEDO", "COMUNA": "COMUNA 5", "EMPLAZAMIE": "CALZADA", "ANCLAJES": 20, "QUEDA_ABIE": 1, "Lat": -34.6224, "Lon": -58.4158 }, "geometry": { "type": "Point", "coordinates": [ -58.4158, -34.6224 ] } },
{ "type": "Feature", "properties": { "ID": 200, "NUMERO": 200, "NOMBRE": "AUSTRIA Y FRENCH", "DIRECCION": "2080 Austria & French", "BARRIO": "RECOLETA", "COMUNA": "COMUNA 3", "EMPLAZAMIE": "CALZADA", "ANCLAJES": 20, "QUEDA_ABIE": 1, "Lat": -34.5883, "Lon": -58.4043 }, "geometry": { "type": "Point", "coordinates": [ -58.4043, -34.5883 ] } },
{ "type": "Feature", "properties": { "ID": 508, "NUMERO": 201, "NOMBRE": "PEPIRI", "DIRECCION": "Alcorta, Amancio Av. y Pepiri", "BARRIO": "NUEVA POMPEYA", "COMUNA": "COMUNA 4", "EMPLAZAMIE": "VEREDA", "ANCLAJES": 8, "QUEDA_ABIE": 3, "Lat": -34.652, "Lon": -58.4073 }, "geometry": { "type": "Point", "coordinates": [ -58.4073, -34.652 ] } },
{ "type": "Feature", "properties": { "ID": 429, "NUMERO": 201, "NOMBRE": "PLAZA EJERCITO DE LOS ANDES", "DIRECCION": "40 Albariño", "BARRIO": "VILLA LURO", "COMUNA": "COMUNA 10", "EMPLAZAMIE": "PLAZA", "ANCLAJES": 8, "QUEDA_ABIE": 1, "Lat": -34.6391, "Lon": -58.5101 }, "geometry": { "type": "Point", "coordinates": [ -58.5101, -34.6391 ] } },
{ "type": "Feature", "properties": { "ID": 332, "NUMERO": 202, "NOMBRE": "NOGOYA Y ARGERICH", "DIRECCION": "3018 Argerich", "BARRIO": "VILLA DEL PARQUE", "COMUNA": "COMUNA 11", "EMPLAZAMIE": "CALZADA", "ANCLAJES": 16, "QUEDA_ABIE": 0, "Lat": -34.602, "Lon": -58.491 }, "geometry": { "type": "Point", "coordinates": [ -58.491, -34.602 ] } },
{ "type": "Feature", "properties": { "ID": 333, "NUMERO": 203, "NOMBRE": "BEIRO", "DIRECCION": "3572 Av. Beiro", "BARRIO": "DEVOTO", "COMUNA": "COMUNA 11", "EMPLAZAMIE": "VEREDA", "ANCLAJES": 20, "QUEDA_ABIE": 1, "Lat": -34.6007, "Lon": -58.5034 }, "geometry": { "type": "Point", "coordinates": [ -58.5034, -34.6007 ] } },
{ "type": "Feature", "properties": { "ID": 382, "NUMERO": 204, "NOMBRE": "BIARRITZ", "DIRECCION": "2403 Biarritz", "BARRIO": "VILLA DEL PARQUE", "COMUNA": "COMUNA 11", "EMPLAZAMIE": "CALZADA", "ANCLAJES": 16, "QUEDA_ABIE": 1, "Lat": -34.6055, "Lon": -58.4774 }, "geometry": { "type": "Point", "coordinates": [ -58.4774, -34.6055 ] } },
{ "type": "Feature", "properties": { "ID": 316, "NUMERO": 205, "NOMBRE": "SAN MARTIN", "DIRECCION": "1471 Cucha Cucha", "BARRIO": "VILLA CRESPO", "COMUNA": "COMUNA 15", "EMPLAZAMIE": "CALZADA", "ANCLAJES": 16, "QUEDA_ABIE": 1, "Lat": -34.6057, "Lon": -58.4532 }, "geometry": { "type": "Point", "coordinates": [ -58.4532, -34.6057 ] } },
{ "type": "Feature", "properties": { "ID": 335, "NUMERO": 206, "NOMBRE": "GALICIA", "DIRECCION": "2502 Galicia", "BARRIO": "VILLA GENERAL MITRE", "COMUNA": "COMUNA 11", "EMPLAZAMIE": "CALZADA", "ANCLAJES": 20, "QUEDA_ABIE": 1, "Lat": -34.6158, "Lon": -58.4708 }, "geometry": { "type": "Point", "coordinates": [ -58.4708, -34.6158 ] } },
{ "type": "Feature", "properties": { "ID": 336, "NUMERO": 207, "NOMBRE": "PLAZA ARENALES", "DIRECCION": "Nueva York & Chivilcoy", "BARRIO": "DEVOTO", "COMUNA": "COMUNA 11", "EMPLAZAMIE": "VEREDA", "ANCLAJES": 28, "QUEDA_ABIE": 1, "Lat": -34.6001, "Lon": -58.5117 }, "geometry": { "type": "Point", "coordinates": [ -58.5117, -34.6001 ] } },
{ "type": "Feature", "properties": { "ID": 337, "NUMERO": 208, "NOMBRE": "SEGUI", "DIRECCION": "2419 Segui", "BARRIO": "PATERNAL", "COMUNA": "COMUNA 15", "EMPLAZAMIE": "CALZADA", "ANCLAJES": 16, "QUEDA_ABIE": 0, "Lat": -34.5985, "Lon": -58.4613 }, "geometry": { "type": "Point", "coordinates": [ -58.4613, -34.5985 ] } },
{ "type": "Feature", "properties": { "ID": 256, "NUMERO": 209, "NOMBRE": "PAYSANDU", "DIRECCION": "1182 Paysandu", "BARRIO": "CABALLITO", "COMUNA": "COMUNA 6", "EMPLAZAMIE": "CALZADA", "ANCLAJES": 20, "QUEDA_ABIE": 0, "Lat": -34.6104, "Lon": -58.4543 }, "geometry": { "type": "Point", "coordinates": [ -58.4543, -34.6104 ] } },
{ "type": "Feature", "properties": { "ID": 338, "NUMERO": 210, "NOMBRE": "TERRERO", "DIRECCION": "3211 Terrero", "BARRIO": "VILLA DEL PARQUE", "COMUNA": "COMUNA 11", "EMPLAZAMIE": "CALZADA", "ANCLAJES": 16, "QUEDA_ABIE": 0, "Lat": -34.6029, "Lon": -58.4794 }, "geometry": { "type": "Point", "coordinates": [ -58.4794, -34.6029 ] } },
{ "type": "Feature", "properties": { "ID": 339, "NUMERO": 211, "NOMBRE": "ARANGUREN Y SEGUI", "DIRECCION": "1608 Aranguren, Juan F., Dr.", "BARRIO": "CABALLITO", "COMUNA": "COMUNA 6", "EMPLAZAMIE": "CALZADA", "ANCLAJES": 16, "QUEDA_ABIE": 0, "Lat": -34.6194, "Lon": -58.4546 }, "geometry": { "type": "Point", "coordinates": [ -58.4546, -34.6194 ] } },
{ "type": "Feature", "properties": { "ID": 314, "NUMERO": 212, "NOMBRE": "SOR JUANA", "DIRECCION": "1630 Galicia", "BARRIO": "CABALLITO", "COMUNA": "COMUNA 6", "EMPLAZAMIE": "CALZADA", "ANCLAJES": 16, "QUEDA_ABIE": 0, "Lat": -34.6104, "Lon": -58.4603 }, "geometry": { "type": "Point", "coordinates": [ -58.4603, -34.6104 ] } },
{ "type": "Feature", "properties": { "ID": 311, "NUMERO": 213, "NOMBRE": "HOSPITAL ALVEAR", "DIRECCION": "2626 Av. Warnes", "BARRIO": "PATERNAL", "COMUNA": "COMUNA 15", "EMPLAZAMIE": "VEREDA", "ANCLAJES": 20, "QUEDA_ABIE": 1, "Lat": -34.5974, "Lon": -58.4753 }, "geometry": { "type": "Point", "coordinates": [ -58.4753, -34.5974 ] } },
{ "type": "Feature", "properties": { "ID": 340, "NUMERO": 214, "NOMBRE": "FLORES", "DIRECCION": "2620 Bogota", "BARRIO": "FLORES", "COMUNA": "COMUNA 7", "EMPLAZAMIE": "CALZADA", "ANCLAJES": 12, "QUEDA_ABIE": 0, "Lat": -34.6263, "Lon": -58.4674 }, "geometry": { "type": "Point", "coordinates": [ -58.4674, -34.6263 ] } },
{ "type": "Feature", "properties": { "ID": 378, "NUMERO": 215, "NOMBRE": "HOSPITAL ALVAREZ", "DIRECCION": "683 Plurinacional de Bolivia", "BARRIO": "FLORES", "COMUNA": "COMUNA 7", "EMPLAZAMIE": "CALZADA", "ANCLAJES": 20, "QUEDA_ABIE": 1, "Lat": -34.6231, "Lon": -58.4684 }, "geometry": { "type": "Point", "coordinates": [ -58.4684, -34.6231 ] } },
{ "type": "Feature", "properties": { "ID": 341, "NUMERO": 216, "NOMBRE": "MAGARIÑOS CERVANTES Y ARGERICH", "DIRECCION": "3011 Magariños Cervantes, A.", "BARRIO": "VILLA SANTA RITA", "COMUNA": "COMUNA 11", "EMPLAZAMIE": "CALZADA", "ANCLAJES": 16, "QUEDA_ABIE": 0, "Lat": -34.6142, "Lon": -58.4813 }, "geometry": { "type": "Point", "coordinates": [ -58.4813, -34.6142 ] } },
{ "type": "Feature", "properties": { "ID": 238, "NUMERO": 217, "NOMBRE": "CACHIMAYO", "DIRECCION": "1489 Cachimayo", "BARRIO": "PARQUE CHACABUCO", "COMUNA": "COMUNA 7", "EMPLAZAMIE": "CALZADA", "ANCLAJES": 24, "QUEDA_ABIE": 0, "Lat": -34.6366, "Lon": -58.4368 }, "geometry": { "type": "Point", "coordinates": [ -58.4368, -34.6366 ] } },
{ "type": "Feature", "properties": { "ID": 342, "NUMERO": 218, "NOMBRE": "CAMPANA", "DIRECCION": "1523 Campana", "BARRIO": "VILLA SANTA RITA", "COMUNA": "COMUNA 11", "EMPLAZAMIE": "CALZADA", "ANCLAJES": 20, "QUEDA_ABIE": 1, "Lat": -34.6168, "Lon": -58.4842 }, "geometry": { "type": "Point", "coordinates": [ -58.4842, -34.6168 ] } },
{ "type": "Feature", "properties": { "ID": 458, "NUMERO": 219, "NOMBRE": "PARQUE CHACABUCO II", "DIRECCION": "Avenida Asamblea y Miro", "BARRIO": "PARQUE CHACABUCO", "COMUNA": "COMUNA 7", "EMPLAZAMIE": "VEREDA", "ANCLAJES": 20, "QUEDA_ABIE": 1, "Lat": -34.6363, "Lon": -58.4439 }, "geometry": { "type": "Point", "coordinates": [ -58.4439, -34.6363 ] } },
{ "type": "Feature", "properties": { "ID": 317, "NUMERO": 220, "NOMBRE": "GIRIBONE", "DIRECCION": "1101 Giribone", "BARRIO": "CHACARITA", "COMUNA": "COMUNA 15", "EMPLAZAMIE": "CALZADA", "ANCLAJES": 20, "QUEDA_ABIE": 0, "Lat": -34.5798, "Lon": -58.4577 }, "geometry": { "type": "Point", "coordinates": [ -58.4577, -34.5798 ] } },
{ "type": "Feature", "properties": { "ID": 299, "NUMERO": 221, "NOMBRE": "CULPINA", "DIRECCION": "121 Culpina", "BARRIO": "FLORES", "COMUNA": "COMUNA 7", "EMPLAZAMIE": "CALZADA", "ANCLAJES": 20, "QUEDA_ABIE": 1, "Lat": -34.6316, "Lon": -58.4663 }, "geometry": { "type": "Point", "coordinates": [ -58.4663, -34.6316 ] } },
{ "type": "Feature", "properties": { "ID": 280, "NUMERO": 222, "NOMBRE": "SIMON BOLIVAR", "DIRECCION": "1701 Fernandez Moreno, Baldomero", "BARRIO": "PARQUE CHACABUCO", "COMUNA": "COMUNA 7", "EMPLAZAMIE": "CALZADA", "ANCLAJES": 24, "QUEDA_ABIE": 1, "Lat": -34.6334, "Lon": -58.4493 }, "geometry": { "type": "Point", "coordinates": [ -58.4493, -34.6334 ] } },
{ "type": "Feature", "properties": { "ID": 273, "NUMERO": 223, "NOMBRE": "GAINZA", "DIRECCION": "494 Gainza, Martin De, Gral.", "BARRIO": "CABALLITO", "COMUNA": "COMUNA 6", "EMPLAZAMIE": "CALZADA", "ANCLAJES": 16, "QUEDA_ABIE": 1, "Lat": -34.6168, "Lon": -58.4467 }, "geometry": { "type": "Point", "coordinates": [ -58.4467, -34.6168 ] } },
{ "type": "Feature", "properties": { "ID": 290, "NUMERO": 224, "NOMBRE": "FERROCARRIL OESTE", "DIRECCION": "280 Garcia Lorca, Federico", "BARRIO": "CABALLITO", "COMUNA": "COMUNA 6", "EMPLAZAMIE": "CALZADA", "ANCLAJES": 20, "QUEDA_ABIE": 0, "Lat": -34.6192, "Lon": -58.4453 }, "geometry": { "type": "Point", "coordinates": [ -58.4453, -34.6192 ] } },
{ "type": "Feature", "properties": { "ID": 428, "NUMERO": 225, "NOMBRE": "HOSPITAL TORNU", "DIRECCION": "1052 Avalos", "BARRIO": "PARQUE CHAS", "COMUNA": "COMUNA 15", "EMPLAZAMIE": "CALZADA", "ANCLAJES": 20, "QUEDA_ABIE": 1, "Lat": -34.5876, "Lon": -58.474 }, "geometry": { "type": "Point", "coordinates": [ -58.474, -34.5876 ] } },
{ "type": "Feature", "properties": { "ID": 345, "NUMERO": 226, "NOMBRE": "PARQUE LA PATERNAL", "DIRECCION": "Zabala, Joaquin, Dr. y Chorroarin Av.", "BARRIO": "PATERNAL", "COMUNA": "COMUNA 15", "EMPLAZAMIE": "PLAZA ABIERTA", "ANCLAJES": 20, "QUEDA_ABIE": 0, "Lat": -34.5951, "Lon": -58.4771 }, "geometry": { "type": "Point", "coordinates": [ -58.4771, -34.5951 ] } },
{ "type": "Feature", "properties": { "ID": 435, "NUMERO": 227, "NOMBRE": "CLUB CIUDAD DE BUENOS AIRES", "DIRECCION": "Miguel Sanchez y Av. Libertador", "BARRIO": "NUÑEZ", "COMUNA": "COMUNA 13", "EMPLAZAMIE": "VEREDA", "ANCLAJES": 16, "QUEDA_ABIE": 1, "Lat": -34.5447, "Lon": -58.4597 }, "geometry": { "type": "Point", "coordinates": [ -58.4597, -34.5447 ] } },
{ "type": "Feature", "properties": { "ID": 283, "NUMERO": 228, "NOMBRE": "BALDOMERO", "DIRECCION": "2289 Fernandez Moreno, Baldomero", "BARRIO": "FLORES", "COMUNA": "COMUNA 7", "EMPLAZAMIE": "CALZADA", "ANCLAJES": 20, "QUEDA_ABIE": 0, "Lat": -34.6355, "Lon": -58.4562 }, "geometry": { "type": "Point", "coordinates": [ -58.4562, -34.6355 ] } },
{ "type": "Feature", "properties": { "ID": 284, "NUMERO": 229, "NOMBRE": "RIGLOS", "DIRECCION": "1037 Riglos", "BARRIO": "PARQUE CHACABUCO", "COMUNA": "COMUNA 7", "EMPLAZAMIE": "CALZADA", "ANCLAJES": 20, "QUEDA_ABIE": 1, "Lat": -34.631, "Lon": -58.4352 }, "geometry": { "type": "Point", "coordinates": [ -58.4352, -34.631 ] } },
{ "type": "Feature", "properties": { "ID": 347, "NUMERO": 230, "NOMBRE": "PARQUE LAS HERAS II", "DIRECCION": "3120 Pacheco de Melo", "BARRIO": "PALERMO", "COMUNA": "COMUNA 14", "EMPLAZAMIE": "VEREDA", "ANCLAJES": 20, "QUEDA_ABIE": 0, "Lat": -34.5837, "Lon": -58.4064 }, "geometry": { "type": "Point", "coordinates": [ -58.4064, -34.5837 ] } },
{ "type": "Feature", "properties": { "ID": 348, "NUMERO": 231, "NOMBRE": "MAGARIÑOS CERVANTES", "DIRECCION": "2465 Magariños Cervantes", "BARRIO": "VILLA GENERAL MITRE", "COMUNA": "COMUNA 11", "EMPLAZAMIE": "VEREDA", "ANCLAJES": 12, "QUEDA_ABIE": 1, "Lat": -34.6104, "Lon": -58.4745 }, "geometry": { "type": "Point", "coordinates": [ -58.4745, -34.6104 ] } },
{ "type": "Feature", "properties": { "ID": 349, "NUMERO": 232, "NOMBRE": "SUCRE Y MARTINEZ", "DIRECCION": "3517 Sucre", "BARRIO": "BELGRANO", "COMUNA": "COMUNA 13", "EMPLAZAMIE": "CALZADA", "ANCLAJES": 20, "QUEDA_ABIE": 1, "Lat": -34.5705, "Lon": -58.4662 }, "geometry": { "type": "Point", "coordinates": [ -58.4662, -34.5705 ] } },
{ "type": "Feature", "properties": { "ID": 278, "NUMERO": 233, "NOMBRE": "MONROE", "DIRECCION": "2519 Superi", "BARRIO": "COGHLAN", "COMUNA": "COMUNA 12", "EMPLAZAMIE": "CALZADA", "ANCLAJES": 16, "QUEDA_ABIE": 1, "Lat": -34.5641, "Lon": -58.4698 }, "geometry": { "type": "Point", "coordinates": [ -58.4698, -34.5641 ] } },
{ "type": "Feature", "properties": { "ID": 350, "NUMERO": 234, "NOMBRE": "VALDENEGRO", "DIRECCION": "2831 Valdenegro", "BARRIO": "VILLA URQUIZA", "COMUNA": "COMUNA 12", "EMPLAZAMIE": "CALZADA", "ANCLAJES": 20, "QUEDA_ABIE": 0, "Lat": -34.5685, "Lon": -58.4846 }, "geometry": { "type": "Point", "coordinates": [ -58.4846, -34.5685 ] } },
{ "type": "Feature", "properties": { "ID": 351, "NUMERO": 235, "NOMBRE": "COLEGIALES", "DIRECCION": "2825 Zabala", "BARRIO": "COLEGIALES", "COMUNA": "COMUNA 13", "EMPLAZAMIE": "CALZADA", "ANCLAJES": 16, "QUEDA_ABIE": 0, "Lat": -34.5719, "Lon": -58.4522 }, "geometry": { "type": "Point", "coordinates": [ -58.4522, -34.5719 ] } },
{ "type": "Feature", "properties": { "ID": 352, "NUMERO": 236, "NOMBRE": "GUEMES", "DIRECCION": "4718 Guemes", "BARRIO": "PALERMO", "COMUNA": "COMUNA 14", "EMPLAZAMIE": "CALZADA", "ANCLAJES": 28, "QUEDA_ABIE": 0, "Lat": -34.5808, "Lon": -58.4248 }, "geometry": { "type": "Point", "coordinates": [ -58.4248, -34.5808 ] } },
{ "type": "Feature", "properties": { "ID": 353, "NUMERO": 237, "NOMBRE": "MADERO OFFICE", "DIRECCION": "367 Sanchez De Thompson, Mariquita", "BARRIO": "PUERTO MADERO", "COMUNA": "COMUNA 1", "EMPLAZAMIE": "CALZADA", "ANCLAJES": 28, "QUEDA_ABIE": 1, "Lat": -34.5991, "Lon": -58.3645 }, "geometry": { "type": "Point", "coordinates": [ -58.3645, -34.5991 ] } },
{ "type": "Feature", "properties": { "ID": 303, "NUMERO": 238, "NOMBRE": "RIVERA", "DIRECCION": "2583 Rivera, Pedro I., Dr.", "BARRIO": "BELGRANO", "COMUNA": "COMUNA 13", "EMPLAZAMIE": "CALZADA", "ANCLAJES": 20, "QUEDA_ABIE": 0, "Lat": -34.5578, "Lon": -58.4629 }, "geometry": { "type": "Point", "coordinates": [ -58.4629, -34.5578 ] } },
{ "type": "Feature", "properties": { "ID": 240, "NUMERO": 239, "NOMBRE": "VIDAL", "DIRECCION": "2799 Vidal", "BARRIO": "BELGRANO", "COMUNA": "COMUNA 13", "EMPLAZAMIE": "CALZADA", "ANCLAJES": 24, "QUEDA_ABIE": 0, "Lat": -34.5582, "Lon": -58.4654 }, "geometry": { "type": "Point", "coordinates": [ -58.4654, -34.5582 ] } },
{ "type": "Feature", "properties": { "ID": 323, "NUMERO": 240, "NOMBRE": "ECHEVERRIA", "DIRECCION": "1981 Vidal", "BARRIO": "BELGRANO", "COMUNA": "COMUNA 13", "EMPLAZAMIE": "CALZADA", "ANCLAJES": 24, "QUEDA_ABIE": 1, "Lat": -34.5653, "Lon": -58.4594 }, "geometry": { "type": "Point", "coordinates": [ -58.4594, -34.5653 ] } },
{ "type": "Feature", "properties": { "ID": 354, "NUMERO": 241, "NOMBRE": "SANATORIO MENDEZ", "DIRECCION": "512 Hidalgo", "BARRIO": "CABALLITO", "COMUNA": "COMUNA 6", "EMPLAZAMIE": "CALZADA", "ANCLAJES": 20, "QUEDA_ABIE": 0, "Lat": -34.6134, "Lon": -58.4402 }, "geometry": { "type": "Point", "coordinates": [ -58.4402, -34.6134 ] } },
{ "type": "Feature", "properties": { "ID": 355, "NUMERO": 242, "NOMBRE": "PLAZOLETA RAFAEL DEL RIEGO", "DIRECCION": "1327 O` Higgins", "BARRIO": "PALERMO", "COMUNA": "COMUNA 14", "EMPLAZAMIE": "PLAZOLETA", "ANCLAJES": 16, "QUEDA_ABIE": 1, "Lat": -34.5674, "Lon": -58.4464 }, "geometry": { "type": "Point", "coordinates": [ -58.4464, -34.5674 ] } },
{ "type": "Feature", "properties": { "ID": 229, "NUMERO": 243, "NOMBRE": "PLAZOLETA CELEDONIO FLORES", "DIRECCION": "6599 Cordoba", "BARRIO": "CHACARITA", "COMUNA": "COMUNA 15", "EMPLAZAMIE": "PLAZOLETA", "ANCLAJES": 12, "QUEDA_ABIE": 1, "Lat": -34.5817, "Lon": -58.4516 }, "geometry": { "type": "Point", "coordinates": [ -58.4516, -34.5817 ] } },
{ "type": "Feature", "properties": { "ID": 291, "NUMERO": 244, "NOMBRE": "UADE", "DIRECCION": "750 Lima", "BARRIO": "MONSERRAT", "COMUNA": "COMUNA 1", "EMPLAZAMIE": "VEREDA", "ANCLAJES": 16, "QUEDA_ABIE": 1, "Lat": -34.6171, "Lon": -58.3815 }, "geometry": { "type": "Point", "coordinates": [ -58.3815, -34.6171 ] } },
{ "type": "Feature", "properties": { "ID": 356, "NUMERO": 245, "NOMBRE": "ARRIBEÑOS", "DIRECCION": "3229 Arribeños", "BARRIO": "NUÑEZ", "COMUNA": "COMUNA 13", "EMPLAZAMIE": "CALZADA", "ANCLAJES": 16, "QUEDA_ABIE": 0, "Lat": -34.548, "Lon": -58.4584 }, "geometry": { "type": "Point", "coordinates": [ -58.4584, -34.548 ] } },
{ "type": "Feature", "properties": { "ID": 321, "NUMERO": 246, "NOMBRE": "EDUARDO OLIVERA", "DIRECCION": "1631 Campos, Luis M. Av.", "BARRIO": "BELGRANO", "COMUNA": "COMUNA 13", "EMPLAZAMIE": "CALZADA", "ANCLAJES": 16, "QUEDA_ABIE": 0, "Lat": -34.5618, "Lon": -58.4447 }, "geometry": { "type": "Point", "coordinates": [ -58.4447, -34.5618 ] } },
{ "type": "Feature", "properties": { "ID": 434, "NUMERO": 247, "NOMBRE": "PLAZA LUCIO DEMARE", "DIRECCION": "3750 O`Higgins", "BARRIO": "NUÑEZ", "COMUNA": "COMUNA 13", "EMPLAZAMIE": "PLAZA ABIERTA", "ANCLAJES": 16, "QUEDA_ABIE": 1, "Lat": -34.5457, "Lon": -58.4651 }, "geometry": { "type": "Point", "coordinates": [ -58.4651, -34.5457 ] } },
{ "type": "Feature", "properties": { "ID": 245, "NUMERO": 248, "NOMBRE": "HUSARES", "DIRECCION": "2201 Husares", "BARRIO": "BELGRANO", "COMUNA": "COMUNA 13", "EMPLAZAMIE": "CALZADA", "ANCLAJES": 16, "QUEDA_ABIE": 1, "Lat": -34.5524, "Lon": -58.443 }, "geometry": { "type": "Point", "coordinates": [ -58.443, -34.5524 ] } },
{ "type": "Feature", "properties": { "ID": 358, "NUMERO": 249, "NOMBRE": "BALBIN", "DIRECCION": "2519 Conesa", "BARRIO": "BELGRANO", "COMUNA": "COMUNA 13", "EMPLAZAMIE": "CALZADA", "ANCLAJES": 12, "QUEDA_ABIE": 1, "Lat": -34.5614, "Lon": -58.4657 }, "geometry": { "type": "Point", "coordinates": [ -58.4657, -34.5614 ] } },
{ "type": "Feature", "properties": { "ID": 359, "NUMERO": 250, "NOMBRE": "FLENI", "DIRECCION": "2292 Montañeses", "BARRIO": "BELGRANO", "COMUNA": "COMUNA 13", "EMPLAZAMIE": "CALZADA", "ANCLAJES": 20, "QUEDA_ABIE": 1, "Lat": -34.5556, "Lon": -58.4505 }, "geometry": { "type": "Point", "coordinates": [ -58.4505, -34.5556 ] } },
{ "type": "Feature", "properties": { "ID": 308, "NUMERO": 251, "NOMBRE": "SOLAR DE LA ABADIA", "DIRECCION": "1819 Maure", "BARRIO": "PALERMO", "COMUNA": "COMUNA 14", "EMPLAZAMIE": "CALZADA", "ANCLAJES": 20, "QUEDA_ABIE": 1, "Lat": -34.5675, "Lon": -58.437 }, "geometry": { "type": "Point", "coordinates": [ -58.437, -34.5675 ] } },
{ "type": "Feature", "properties": { "ID": 232, "NUMERO": 252, "NOMBRE": "TAMBORINI", "DIRECCION": "3821 Tamborini, Jose Pascual", "BARRIO": "COGHLAN", "COMUNA": "COMUNA 12", "EMPLAZAMIE": "CALZADA", "ANCLAJES": 20, "QUEDA_ABIE": 1, "Lat": -34.5601, "Lon": -58.4791 }, "geometry": { "type": "Point", "coordinates": [ -58.4791, -34.5601 ] } },
{ "type": "Feature", "properties": { "ID": 436, "NUMERO": 253, "NOMBRE": "PLAZA COLEGIALES", "DIRECCION": "3061 Matienzo", "BARRIO": "COLEGIALES", "COMUNA": "COMUNA 13", "EMPLAZAMIE": "VEREDA", "ANCLAJES": 12, "QUEDA_ABIE": 1, "Lat": -34.5784, "Lon": -58.4453 }, "geometry": { "type": "Point", "coordinates": [ -58.4453, -34.5784 ] } },
{ "type": "Feature", "properties": { "ID": 236, "NUMERO": 254, "NOMBRE": "PLAZA RAFAEL HERNANDEZ", "DIRECCION": "2004 Vuelta De Obligado", "BARRIO": "BELGRANO", "COMUNA": "COMUNA 13", "EMPLAZAMIE": "PLAZA ABIERTA", "ANCLAJES": 16, "QUEDA_ABIE": 1, "Lat": -34.5625, "Lon": -58.4552 }, "geometry": { "type": "Point", "coordinates": [ -58.4552, -34.5625 ] } },
{ "type": "Feature", "properties": { "ID": 289, "NUMERO": 255, "NOMBRE": "BARRANCAS DE BELGRANO", "DIRECCION": "Sucre, Antonio Jose De, Mcal. & Vertiz Virrey Av.", "BARRIO": "BELGRANO", "COMUNA": "COMUNA 13", "EMPLAZAMIE": "PLAZA ABIERTA", "ANCLAJES": 24, "QUEDA_ABIE": 1, "Lat": -34.5599, "Lon": -58.4482 }, "geometry": { "type": "Point", "coordinates": [ -58.4482, -34.5599 ] } },
{ "type": "Feature", "properties": { "ID": 275, "NUMERO": 256, "NOMBRE": "PLAZA NORUEGA", "DIRECCION": "Amenabar & Mendoza", "BARRIO": "BELGRANO", "COMUNA": "COMUNA 13", "EMPLAZAMIE": "PLAZA ABIERTA", "ANCLAJES": 20, "QUEDA_ABIE": 1, "Lat": -34.5622, "Lon": -58.4594 }, "geometry": { "type": "Point", "coordinates": [ -58.4594, -34.5622 ] } },
{ "type": "Feature", "properties": { "ID": 416, "NUMERO": 257, "NOMBRE": "PLAZA FRANCISCO RAMIREZ", "DIRECCION": "2700 Pedraza, Manuela", "BARRIO": "NUÑEZ", "COMUNA": "COMUNA 13", "EMPLAZAMIE": "CALZADA", "ANCLAJES": 28, "QUEDA_ABIE": 1, "Lat": -34.5531, "Lon": -58.4689 }, "geometry": { "type": "Point", "coordinates": [ -58.4689, -34.5531 ] } },
{ "type": "Feature", "properties": { "ID": 361, "NUMERO": 258, "NOMBRE": "PLAZA J.J. PASO", "DIRECCION": "1399 Moldes", "BARRIO": "COLEGIALES", "COMUNA": "COMUNA 13", "EMPLAZAMIE": "CALZADA", "ANCLAJES": 20, "QUEDA_ABIE": 1, "Lat": -34.5691, "Lon": -58.4538 }, "geometry": { "type": "Point", "coordinates": [ -58.4538, -34.5691 ] } },
{ "type": "Feature", "properties": { "ID": 230, "NUMERO": 259, "NOMBRE": "PLAZA CASTELLI", "DIRECCION": "3249 Echeverria", "BARRIO": "BELGRANO", "COMUNA": "COMUNA 13", "EMPLAZAMIE": "PLAZA CERRADA", "ANCLAJES": 16, "QUEDA_ABIE": 1, "Lat": -34.5679, "Lon": -58.4642 }, "geometry": { "type": "Point", "coordinates": [ -58.4642, -34.5679 ] } },
{ "type": "Feature", "properties": { "ID": 269, "NUMERO": 260, "NOMBRE": "SAN MIGUEL DE GARICOITS", "DIRECCION": "Delgado & Loreto, Virrey", "BARRIO": "COLEGIALES", "COMUNA": "COMUNA 13", "EMPLAZAMIE": "PLAZA ABIERTA", "ANCLAJES": 18, "QUEDA_ABIE": 1, "Lat": -34.5772, "Lon": -58.4576 }, "geometry": { "type": "Point", "coordinates": [ -58.4576, -34.5772 ] } },
{ "type": "Feature", "properties": { "ID": 187, "NUMERO": 261, "NOMBRE": "QUINTEROS LIDORO", "DIRECCION": "1483 Quinteros, Lidoro J. Av.", "BARRIO": "BELGRANO", "COMUNA": "COMUNA 13", "EMPLAZAMIE": "PLAZOLETA", "ANCLAJES": 16, "QUEDA_ABIE": 1, "Lat": -34.5523, "Lon": -58.4509 }, "geometry": { "type": "Point", "coordinates": [ -58.4509, -34.5523 ] } },
{ "type": "Feature", "properties": { "ID": 362, "NUMERO": 262, "NOMBRE": "HOLMBERG", "DIRECCION": "2725 Holmberg", "BARRIO": "VILLA URQUIZA", "COMUNA": "COMUNA 12", "EMPLAZAMIE": "CALZADA", "ANCLAJES": 16, "QUEDA_ABIE": 1, "Lat": -34.5667, "Lon": -58.4791 }, "geometry": { "type": "Point", "coordinates": [ -58.4791, -34.5667 ] } },
{ "type": "Feature", "properties": { "ID": 383, "NUMERO": 263, "NOMBRE": "PLAZA ECHEVERRIA", "DIRECCION": "Nahuel Huapi & Triunvirato Av.", "BARRIO": "VILLA URQUIZA", "COMUNA": "COMUNA 12", "EMPLAZAMIE": "PLAZA CERRADA", "ANCLAJES": 16, "QUEDA_ABIE": 1, "Lat": -34.5717, "Lon": -58.4897 }, "geometry": { "type": "Point", "coordinates": [ -58.4897, -34.5717 ] } },
{ "type": "Feature", "properties": { "ID": 257, "NUMERO": 264, "NOMBRE": "PLAZA MARCOS SASTRE", "DIRECCION": "Miller & Monroe", "BARRIO": "VILLA URQUIZA", "COMUNA": "COMUNA 12", "EMPLAZAMIE": "PLAZA ABIERTA", "ANCLAJES": 24, "QUEDA_ABIE": 1, "Lat": -34.5711, "Lon": -58.4809 }, "geometry": { "type": "Point", "coordinates": [ -58.4809, -34.5711 ] } },
{ "type": "Feature", "properties": { "ID": 373, "NUMERO": 265, "NOMBRE": "PLAZA EXODO JUJEÑO", "DIRECCION": "2812 Liverpool", "BARRIO": "PARQUE CHAS", "COMUNA": "COMUNA 15", "EMPLAZAMIE": "CALZADA", "ANCLAJES": 16, "QUEDA_ABIE": 1, "Lat": -34.5826, "Lon": -58.481 }, "geometry": { "type": "Point", "coordinates": [ -58.481, -34.5826 ] } },
{ "type": "Feature", "properties": { "ID": 244, "NUMERO": 266, "NOMBRE": "PLAZA ALFREDO NOBEL", "DIRECCION": "3310 Hamburgo", "BARRIO": "PARQUE CHAS", "COMUNA": "COMUNA 15", "EMPLAZAMIE": "PLAZA ABIERTA", "ANCLAJES": 20, "QUEDA_ABIE": 0, "Lat": -34.5874, "Lon": -58.4843 }, "geometry": { "type": "Point", "coordinates": [ -58.4843, -34.5874 ] } },
{ "type": "Feature", "properties": { "ID": 384, "NUMERO": 267, "NOMBRE": "PLAZA 25 DE AGOSTO", "DIRECCION": "1436 Giribone EX 14 De Julio 1194", "BARRIO": "VILLA ORTUZAR", "COMUNA": "COMUNA 15", "EMPLAZAMIE": "PLAZOLETA", "ANCLAJES": 15, "QUEDA_ABIE": 1, "Lat": -34.5797, "Lon": -58.4618 }, "geometry": { "type": "Point", "coordinates": [ -58.4618, -34.5797 ] } },